station_name,station_id,real_time,active?,owner,owner_2,maintainer,project,latitude,longitude,elevation_ft,transmit_time,mesowest_link,station_type,hydrologic,weather,coastal,experimental_plot,seismometer,satellite,precipitation,temperature,data_provider,dew_point,wind,visability,sky_conditions,sea_level_pressure,wave_swell_height,altimeter_reading,snow_amount,heated,seasonal,reliable_forcsting,precip_reliable,temp_reliable,wind_reliable,dewpoint_reliable,additional_information,web_link,contact_person,contact_email,device_specific_details
Helm Lake,HLMA2,Unknown,Inactive,U.S. Forest Service,,,Remote Automated Weather Station,53.529722,-131.366111,1400,None,Unknown,Weather Station,Yes,Yes,No,No,No,No,Yes,Yes,National Weather Service,Yes,Yes,Unknown,Unknown,Unknown,Unknown,Unknown,Unknown,Unknown,Unknown,Unknown,Unknown,Unknown,Unknown,Unknown,No,Unknown,Unknown,Unknown,Unknown
Canadian Buoy 205,46205,Yes,Active,Environment Canada,,,Navy Oceanographic Meteorological Automatic Device (NOMAD) buoy ,54.165,-134.283,0,:00,Unknown,Weather Station,Unknown,Yes,No,No,No,No,Unknown,Yes,National Weather Service,Yes,Yes,Unknown,Unknown,Yes,Yes,Unknown,Unknown,Unknown,Unknown,Yes,Unknown,Yes,Yes,No,No,Unknown,Unknown,Unknown,Unknown
Canadian Buoy 145,46145,Yes,Active,Environment Canada,,,Navy Oceanographic Meteorological Automatic Device (NOMAD) buoy ,54.366,-132.417,0,:00,Unknown,Weather Station,Unknown,Yes,No,No,No,No,Unknown,Yes,National Weather Service,Yes,Yes,Unknown,Unknown,Yes,Yes,Unknown,Unknown,Unknown,Unknown,Yes,Unknown,Yes,Yes,No,No,Unknown,Unknown,Unknown,Unknown
Tree Point,TPXA2,Yes,Inactive,Marine Exchange of Alaska,,,Unknown,54.8028,-130.9343,Unknown,Unknown,Unknown,Weather Station,Unknown,Unknown,No,No,No,No,Unknown,Unknown,National Weather Service,Unknown,Unknown,Unknown,Unknown,Unknown,Unknown,Unknown,Unknown,Unknown,Unknown,Unknown,Unknown,Unknown,Unknown,Unknown,No,Unknown,Unknown,Unknown,Unknown
"Koiangles, Installation 16, Plot 1600",462,Unknown,Active,U.S. Forest Service,,,Cooperative Stand-Density Study (CSDS),54.82075,-132.697,Unknown,Unknown,N/A,Experimental Plot,No,No,No,Yes,No,No,Unknown,Unknown,U.S. Forest Service,Unknown,Unknown,Unknown,Unknown,Unknown,Unknown,Unknown,Unknown,Unknown,Unknown,Unknown,Unknown,Unknown,Unknown,Unknown,No,Unknown,Kellen Nelson,kellen.nelson@usda.gov,Drawn from field maps onto TNF DOQQs
"Koiangles, Installation 16, Plot 1600",419,Unknown,Active,U.S. Forest Service,,,Cooperative Stand-Density Study (CSDS),54.82137,-132.697,Unknown,Unknown,N/A,Experimental Plot,No,No,No,Yes,No,No,Unknown,Unknown,U.S. Forest Service,Unknown,Unknown,Unknown,Unknown,Unknown,Unknown,Unknown,Unknown,Unknown,Unknown,Unknown,Unknown,Unknown,Unknown,Unknown,No,Unknown,Kellen Nelson,kellen.nelson@usda.gov,Drawn from field maps onto TNF DOQQs
"Koiangles, Installation 16, Plot 1600",418,Unknown,Active,U.S. Forest Service,,,Cooperative Stand-Density Study (CSDS),54.82157,-132.696,Unknown,Unknown,N/A,Experimental Plot,No,No,No,Yes,No,No,Unknown,Unknown,U.S. Forest Service,Unknown,Unknown,Unknown,Unknown,Unknown,Unknown,Unknown,Unknown,Unknown,Unknown,Unknown,Unknown,Unknown,Unknown,Unknown,No,Unknown,Kellen Nelson,kellen.nelson@usda.gov,Drawn from field maps onto TNF DOQQs
"Mission Cove, Installation 15, Plot 1540",417,Unknown,Active,U.S. Forest Service,,,Cooperative Stand-Density Study (CSDS),54.87303,-132.797,Unknown,Unknown,N/A,Experimental Plot,No,No,No,Yes,No,No,Unknown,Unknown,U.S. Forest Service,Unknown,Unknown,Unknown,Unknown,Unknown,Unknown,Unknown,Unknown,Unknown,Unknown,Unknown,Unknown,Unknown,Unknown,Unknown,Location approximate.,Unknown,Kellen Nelson,kellen.nelson@usda.gov,Drawn from field maps onto TNF DOQQs
"Mission Cove, Installation 15, Plot 1530",416,Unknown,Active,U.S. Forest Service,,,Cooperative Stand-Density Study (CSDS),54.87328,-132.796,Unknown,Unknown,N/A,Experimental Plot,No,No,No,Yes,No,No,Unknown,Unknown,U.S. Forest Service,Unknown,Unknown,Unknown,Unknown,Unknown,Unknown,Unknown,Unknown,Unknown,Unknown,Unknown,Unknown,Unknown,Unknown,Unknown,Location approximate.,Unknown,Kellen Nelson,kellen.nelson@usda.gov,Drawn from field maps onto TNF DOQQs
"Mission Cove, Installation 15, Plot 1550",392,Unknown,Active,U.S. Forest Service,,,Cooperative Stand-Density Study (CSDS),54.87356,-132.797,Unknown,Unknown,N/A,Experimental Plot,No,No,No,Yes,No,No,Unknown,Unknown,U.S. Forest Service,Unknown,Unknown,Unknown,Unknown,Unknown,Unknown,Unknown,Unknown,Unknown,Unknown,Unknown,Unknown,Unknown,Unknown,Unknown,Location approximate.,Unknown,Kellen Nelson,kellen.nelson@usda.gov,Drawn from field maps onto TNF DOQQs
"Mission Cove, Installation 15, Plot 1560",415,Unknown,Active,U.S. Forest Service,,,Cooperative Stand-Density Study (CSDS),54.8738,-132.797,Unknown,Unknown,N/A,Experimental Plot,No,No,No,Yes,No,No,Unknown,Unknown,U.S. Forest Service,Unknown,Unknown,Unknown,Unknown,Unknown,Unknown,Unknown,Unknown,Unknown,Unknown,Unknown,Unknown,Unknown,Unknown,Unknown,Location approximate.,Unknown,Kellen Nelson,kellen.nelson@usda.gov,Drawn from field maps onto TNF DOQQs
Annette/WSO,PANT,Yes,Active,National Weather Service,Federal Aviation Administration,,The ASOS Monitoring Center (AOMC),55.04,-131.57,112,:53,Unknown,Weather Station,Yes,Yes,No,No,No,No,Yes,Yes,National Weather Service,Yes,Yes,Yes,Yes,Yes,Unknown,Yes,Yes,Yes,Unknown,Yes,Yes,Yes,Yes,Yes,No,Unknown,Unknown,Unknown,Unknown
AK Metlakatla 6 S NOAA/NWS Annette Island 6 S AK,META2,Yes,Active,National Weather Service,,,U.S. Climate Reference Network,55.0455,-131.5877,101,Unknown,Unknown,Weather Station,Yes,Yes,No,No,No,No,Yes,Yes,National Weather Service,Yes,Yes,Unknown,Unknown,Unknown,Unknown,Unknown,Unknown,Yes,Unknown,Yes,Yes,Yes,No,Yes,"1.5 Temperature, 1.5m Relative Humidity, 3.0m Wind Gust mph, Precipitation accumulated in, Precipitation 1hr in, Precipitation 5min in",https://www.weather.gov/wrh/timeseries?site=META2,Unknown,Unknown,Unknown
Mary Island,MRYA2,Yes,Active,Marine Exchange of Alaska,,,Unknown,55.099,-131.182,13,Unknown,Unknown,Weather Station,Unknown,Yes,No,No,No,No,Unknown,Yes,National Weather Service,Yes,Yes,Unknown,Unknown,Unknown,Unknown,Unknown,Unknown,Unknown,Unknown,Yes,Unknown,Yes,Yes,No,No,https://www.weather.gov/wrh/timeseries?site=MRYA2&hours=72,Unknown,Unknown,Unknown
Chest Lake Weather Station,CMWA2,Yes,Active,Metlakatla Indian Community,Bureau of Indian Affairs,,Unknown,55.1192,-131.5315,860,Unknown,https://mesowest.utah.edu/cgi-bin/droman/meso_base_dyn.cgi?stn=CMWA2&unit=0&time=LOCAL,Unknown,Yes,Yes,No,No,No,No,Yes,Yes,National Weather Service,Yes,Yes,No,No,No,No,No,No,No,No,Yes,Yes,Yes,Yes,Yes,"Temp, Precipitation 1hr in",Unknown,Unknown,Unknown,Unknown
Metlakatla,PAMM,Yes,Active,National Weather Service,Federal Aviation Administration,,The ASOS Monitoring Center (AOMC),55.131,-131.578,0,:16/36/56,https://mesowest.utah.edu/cgi-bin/droman/meso_base_dyn.cgi?stn=PAMM&unit=0&time=LOCAL,Weather Station,Unknown,Yes,No,No,No,No,Unknown,Yes,National Weather Service,Yes,Yes,Yes,Yes,Yes,Unknown,Yes,Unknown,Yes,Unknown,Yes,Yes,Yes,Yes,Yes,No,https://www.weather.gov/wrh/timeseries?site=PAMM&hours=72,Aaron Jacobs,aaron.jacobs@noaa.gov,Unknown
Minx Island Federal Aviation Administration,KTNBW,Yes,Active,Federal Aviation Administration,,,Unknown,55.14275,-131.2171,Unknown,Unknown,Unknown,Weather Station,Unknown,Yes,No,No,No,No,Unknown,Yes,National Weather Service,Unknown,Yes,Yes,Unknown,Unknown,Unknown,Unknown,Unknown,Unknown,Unknown,Unknown,Unknown,Unknown,Unknown,Unknown,No,https://www.weather.gov/wrh/timeseries?site=KTNBW&hours=72,Unknown,Unknown,Unknown
"Lancaster Cove, Unit 5, ",414,Unknown,Active,U.S. Forest Service,,,Alternatives to Clearcutting (ATC),55.16379,-132.14,Unknown,Unknown,N/A,Experimental Plot,No,No,No,Yes,No,No,Unknown,Unknown,U.S. Forest Service,Unknown,Unknown,Unknown,Unknown,Unknown,Unknown,Unknown,Unknown,Unknown,Unknown,Unknown,Unknown,Unknown,Unknown,Unknown,No,Unknown,Kellen Nelson,kellen.nelson@usda.gov,Combination PLGR GPS initial reference point and Criterion laser traverse
"Lancaster Cove, Unit 7, ",412,Unknown,Active,U.S. Forest Service,,,Alternatives to Clearcutting (ATC),55.17728,-132.1,Unknown,Unknown,N/A,Experimental Plot,No,No,No,Yes,No,No,Unknown,Unknown,U.S. Forest Service,Unknown,Unknown,Unknown,Unknown,Unknown,Unknown,Unknown,Unknown,Unknown,Unknown,Unknown,Unknown,Unknown,Unknown,Unknown,No,Unknown,Kellen Nelson,kellen.nelson@usda.gov,Combination PLGR GPS initial reference point and Criterion laser traverse
"Lancaster Cove, Unit 2, Leave Island",413,Unknown,Active,U.S. Forest Service,,,Alternatives to Clearcutting (ATC),55.17741,-132.115,Unknown,Unknown,N/A,Experimental Plot,No,No,No,Yes,No,No,Unknown,Unknown,U.S. Forest Service,Unknown,Unknown,Unknown,Unknown,Unknown,Unknown,Unknown,Unknown,Unknown,Unknown,Unknown,Unknown,Unknown,Unknown,Unknown,No,Unknown,Kellen Nelson,kellen.nelson@usda.gov,Combination PLGR GPS initial reference point and Criterion laser traverse
"Lancaster Cove, Unit 2, ",411,Unknown,Active,U.S. Forest Service,,,Alternatives to Clearcutting (ATC),55.17751,-132.115,Unknown,Unknown,N/A,Experimental Plot,No,No,No,Yes,No,No,Unknown,Unknown,U.S. Forest Service,Unknown,Unknown,Unknown,Unknown,Unknown,Unknown,Unknown,Unknown,Unknown,Unknown,Unknown,Unknown,Unknown,Unknown,Unknown,No,Unknown,Kellen Nelson,kellen.nelson@usda.gov,Combination PLGR GPS initial reference point and Criterion laser traverse
"Lancaster Cove, Unit 9, ",409,Unknown,Active,U.S. Forest Service,,,Alternatives to Clearcutting (ATC),55.18211,-132.07,Unknown,Unknown,N/A,Experimental Plot,No,No,No,Yes,No,No,Unknown,Unknown,U.S. Forest Service,Unknown,Unknown,Unknown,Unknown,Unknown,Unknown,Unknown,Unknown,Unknown,Unknown,Unknown,Unknown,Unknown,Unknown,Unknown,No,Unknown,Kellen Nelson,kellen.nelson@usda.gov,Combination PLGR GPS initial reference point and Criterion laser traverse
"Lancaster Cove, Unit 1, ",410,Unknown,Active,U.S. Forest Service,,,Alternatives to Clearcutting (ATC),55.18288,-132.104,Unknown,Unknown,N/A,Experimental Plot,No,No,No,Yes,No,No,Unknown,Unknown,U.S. Forest Service,Unknown,Unknown,Unknown,Unknown,Unknown,Unknown,Unknown,Unknown,Unknown,Unknown,Unknown,Unknown,Unknown,Unknown,Unknown,No,Unknown,Kellen Nelson,kellen.nelson@usda.gov,Combination PLGR GPS initial reference point and Criterion laser traverse
"Lancaster Cove, Unit 6, ",408,Unknown,Active,U.S. Forest Service,,,Alternatives to Clearcutting (ATC),55.18742,-132.072,Unknown,Unknown,N/A,Experimental Plot,No,No,No,Yes,No,No,Unknown,Unknown,U.S. Forest Service,Unknown,Unknown,Unknown,Unknown,Unknown,Unknown,Unknown,Unknown,Unknown,Unknown,Unknown,Unknown,Unknown,Unknown,Unknown,No,Unknown,Kellen Nelson,kellen.nelson@usda.gov,Combination PLGR GPS initial reference point and Criterion laser traverse
"Lancaster Cove, Unit 8, ",406,Unknown,Active,U.S. Forest Service,,,Alternatives to Clearcutting (ATC),55.19075,-132.089,Unknown,Unknown,N/A,Experimental Plot,No,No,No,Yes,No,No,Unknown,Unknown,U.S. Forest Service,Unknown,Unknown,Unknown,Unknown,Unknown,Unknown,Unknown,Unknown,Unknown,Unknown,Unknown,Unknown,Unknown,Unknown,Unknown,No,Unknown,Kellen Nelson,kellen.nelson@usda.gov,Combination PLGR GPS initial reference point and Criterion laser traverse
"Lancaster Cove, Unit 3/Unit8, Leave Island",407,Unknown,Active,U.S. Forest Service,,,Alternatives to Clearcutting (ATC),55.19084,-132.093,Unknown,Unknown,N/A,Experimental Plot,No,No,No,Yes,No,No,Unknown,Unknown,U.S. Forest Service,Unknown,Unknown,Unknown,Unknown,Unknown,Unknown,Unknown,Unknown,Unknown,Unknown,Unknown,Unknown,Unknown,Unknown,Unknown,No,Unknown,Kellen Nelson,kellen.nelson@usda.gov,Combination PLGR GPS initial reference point and Criterion laser traverse
"Lancaster Cove, Unit 3, ",405,Unknown,Active,U.S. Forest Service,,,Alternatives to Clearcutting (ATC),55.19427,-132.091,Unknown,Unknown,N/A,Experimental Plot,No,No,No,Yes,No,No,Unknown,Unknown,U.S. Forest Service,Unknown,Unknown,Unknown,Unknown,Unknown,Unknown,Unknown,Unknown,Unknown,Unknown,Unknown,Unknown,Unknown,Unknown,Unknown,No,Unknown,Kellen Nelson,kellen.nelson@usda.gov,Combination PLGR GPS initial reference point and Criterion laser traverse
Hydaburg Airport,PAHY,Yes,Active,National Weather Service,Federal Aviation Administration,,The ASOS Monitoring Center (AOMC),55.2,-132.81,0,:16/36/56,https://mesowest.utah.edu/cgi-bin/droman/meso_base_dyn.cgi?stn=PAHY&unit=0&time=LOCAL,Weather Station,Yes,Yes,No,No,No,No,Yes,Yes,National Weather Service,Yes,Yes,Yes,Yes,Yes,Unknown,Yes,Unknown,Yes,Unknown,Yes,Yes,Yes,Yes,Yes,No,https://www.weather.gov/wrh/timeseries?site=PAHY&hours=72,Aaron Jacobs,aaron.jacobs@noaa.gov,Unknown
"Lancaster Cove, Unit 4, ",404,Unknown,Active,U.S. Forest Service,,,Alternatives to Clearcutting (ATC),55.20093,-132.079,Unknown,Unknown,N/A,Experimental Plot,No,No,No,Yes,No,No,Unknown,Unknown,U.S. Forest Service,Unknown,Unknown,Unknown,Unknown,Unknown,Unknown,Unknown,Unknown,Unknown,Unknown,Unknown,Unknown,Unknown,Unknown,Unknown,No,Unknown,Kellen Nelson,kellen.nelson@usda.gov,Combination PLGR GPS initial reference point and Criterion laser traverse
Reynolds Creek below Lake Mellen near Hydaburg,RCHA2,No,Inactive,Unknown,,,Unknown,55.2181,-132.5806,Unknown,Unknown,Unknown,Stream Gauge,Yes,No,No,No,No,No,Unknown,Unknown,National Weather Service,Unknown,Unknown,Unknown,Unknown,Unknown,Unknown,Unknown,Unknown,Unknown,Unknown,Unknown,Unknown,Unknown,Unknown,Unknown,No,Unknown,Unknown,Unknown,Unknown
Saxmon Seaport,SXXA2,Yes,Active,Marine Exchange of Alaska,,,Unknown,55.315,-131.596,Unknown,Unknown,Unknown,Weather Station,Unknown,Unknown,No,No,No,No,Unknown,Unknown,National Weather Service,Unknown,Unknown,Unknown,Unknown,Unknown,Unknown,Unknown,Unknown,Unknown,Unknown,Unknown,Unknown,Unknown,Unknown,Unknown,No,Unknown,Unknown,Unknown,Unknown
"Experiment 3 (25-35 years), POW Cave Creek E, ",444,Unknown,Active,U.S. Forest Service,,,Tongass-Wide Young Growth Study (TWYGS),55.32199,-132.751,Unknown,Unknown,N/A,Experimental Plot,No,No,No,Yes,No,No,Unknown,Unknown,U.S. Forest Service,Unknown,Unknown,Unknown,Unknown,Unknown,Unknown,Unknown,Unknown,Unknown,Unknown,Unknown,Unknown,Unknown,Unknown,Unknown,"StandID 621060516. Five, 1/5-acre permanent plots are installed in each treatment unit. The control & 1:2 pruning treatments each have 1 fenced & 1 unfenced deer exclosure.",Unknown,Kellen Nelson,kellen.nelson@usda.gov,"Original boundaries from field traverses by RD staff. Bndrys updated using differentially corrected GPS data & digitizing from 1997 TNF DOQQs, 2006 Census Bureau orthos, & Google Earth"
"Experiment 2 (15-25 years), POW Cave Creek W, ",445,Unknown,Active,U.S. Forest Service,,,Tongass-Wide Young Growth Study (TWYGS),55.32617,-132.782,Unknown,Unknown,N/A,Experimental Plot,No,No,No,Yes,No,No,Unknown,Unknown,U.S. Forest Service,Unknown,Unknown,Unknown,Unknown,Unknown,Unknown,Unknown,Unknown,Unknown,Unknown,Unknown,Unknown,Unknown,Unknown,Unknown,"StandID 624050515. Five, 1/5-acre permanent plots in each treatment. Control & 18x18 PCT each have 1 fenced & 1 unfenced deer exclosure.",Unknown,Kellen Nelson,kellen.nelson@usda.gov,"Original boundaries from field traverses by RD staff. Bndrys updated using differentially corrected GPS data & digitizing from 1997 TNF DOQQs, 2006 Census Bureau orthos, & Google Earth"
Ketchikan,V35KX,Yes,Active,USArray,,,Unknown,55.3279,-131.615,Unknown,Unknown,Unknown,Seismometer,No,No,No,No,Yes,No,Unknown,Unknown,National Weather Service,Unknown,Unknown,Unknown,Unknown,Unknown,Unknown,Unknown,Unknown,Unknown,Unknown,Unknown,Unknown,Unknown,Unknown,Unknown,No,Unknown,Unknown,Unknown,Unknown
Haida,HADA2,Yes,Active,U.S. Forest Service,,,Remote Automated Weather Station,55.33,-132.6675,671,:55,https://mesowest.utah.edu/cgi-bin/droman/meso_base_dyn.cgi?stn=HADA2&unit=0&time=LOCAL,Weather Station,Yes,Yes,No,No,No,No,Yes,Yes,National Weather Service,Yes,Yes,Unknown,Unknown,Unknown,Unknown,Unknown,Unknown,No,Unknown,Yes,Yes,Yes,Yes,Yes,No,https://www.weather.gov/wrh/timeseries?site=HADA2&hours=72,Unknown,Unknown,Unknown
Whitman Creek,WCGA2,Yes,Active,Ketchikan Public Utilities,,,Unknown,55.3312,-131.5198,170,Unknown,Unknown,Stream Gauge,Yes,No,No,No,No,No,Unknown,Unknown,National Weather Service,Unknown,Unknown,Unknown,Unknown,Unknown,Unknown,Unknown,Unknown,Unknown,Unknown,Unknown,Unknown,Unknown,Unknown,Unknown,No,Unknown,Unknown,Unknown,Unknown
Whitman Lake Dam,WLDA2,Yes,Active,Ketchikan Public Utilities,,,Unknown,55.3329,-131.532,385,Unknown,Unknown,Dam level,Yes,,No,No,No,No,Yes,Yes,National Weather Service,Unknown,Unknown,Unknown,Unknown,Unknown,Unknown,Unknown,Unknown,Yes,Unknown,Yes,Yes,Yes,Unknown,Unknown,"Temp F, Precipitation 1hr in",https://water.noaa.gov/gauges/wlda2,Unknown,Unknown,Unknown
Ketchikan Tide Gauge,KECA2,Yes,Active,National Oceanic and Atmospheric Administration,National Ocean Service (NOS),,National Water Level Observation Network (NWLON),55.333,-131.625,0,:00,Unknown,Tide Gauge,Yes,No,Yes,No,No,No,Unknown,Yes,National Weather Service,Unknown,Yes,Unknown,Unknown,Yes,Yes,Unknown,Unknown,Unknown,Unknown,Yes,Unknown,Yes,Yes,Unknown,No,Unknown,Unknown,Unknown,Unknown
"Twelvemile, Azaelea, ",103,Unknown,Active,U.S. Forest Service,,,Watershed Restoration & Ecosystem Monitoring (WREM),55.33642,-132.696,Unknown,Unknown,N/A,Experimental Plot,No,No,No,Yes,No,No,Unknown,Unknown,U.S. Forest Service,Unknown,Unknown,Unknown,Unknown,Unknown,Unknown,Unknown,Unknown,Unknown,Unknown,Unknown,Unknown,Unknown,Unknown,Unknown,"Site contains twelve, 40m x 5m silviculture strip plots plus 6 litter and insect traps. Alternate contact is Di Johnson, 586-8819 or David D'Amore, 586-7955.",Unknown,Rick Edwards,richard.t.edwards@usda.gov,Silviculture plot corner coord taken with Trimble ProXT & differentially corrected. Garmin GPS used for litter/insect traps. 100 ft buffer added around site.
"Cave Creek, Installation 60, Plot 2180",403,Unknown,Active,U.S. Forest Service,,,Cooperative Stand-Density Study (CSDS),55.33786,-132.759,Unknown,Unknown,N/A,Experimental Plot,No,No,No,Yes,No,No,Unknown,Unknown,U.S. Forest Service,Unknown,Unknown,Unknown,Unknown,Unknown,Unknown,Unknown,Unknown,Unknown,Unknown,Unknown,Unknown,Unknown,Unknown,Unknown,Location approximate,Unknown,Kellen Nelson,kellen.nelson@usda.gov,Combination: drawn from field maps onto TNF DOQQs & used differentially corrected Trimble GPS pts.
"Cave Creek, Installation 60, Plot 2190",402,Unknown,Active,U.S. Forest Service,,,Cooperative Stand-Density Study (CSDS),55.33838,-132.759,Unknown,Unknown,N/A,Experimental Plot,No,No,No,Yes,No,No,Unknown,Unknown,U.S. Forest Service,Unknown,Unknown,Unknown,Unknown,Unknown,Unknown,Unknown,Unknown,Unknown,Unknown,Unknown,Unknown,Unknown,Unknown,Unknown,Location approximate,Unknown,Kellen Nelson,kellen.nelson@usda.gov,Combination: drawn from field maps onto TNF DOQQs & used differentially corrected Trimble GPS pts.
"Cave Creek, Installation 60, Plot 2220",401,Unknown,Active,U.S. Forest Service,,,Cooperative Stand-Density Study (CSDS),55.33864,-132.76,Unknown,Unknown,N/A,Experimental Plot,No,No,No,Yes,No,No,Unknown,Unknown,U.S. Forest Service,Unknown,Unknown,Unknown,Unknown,Unknown,Unknown,Unknown,Unknown,Unknown,Unknown,Unknown,Unknown,Unknown,Unknown,Unknown,Location approximate,Unknown,Kellen Nelson,kellen.nelson@usda.gov,Combination: drawn from field maps onto TNF DOQQs & used differentially corrected Trimble GPS pts.
"Cave Creek, Installation 60, Plot 2201",400,Unknown,Active,U.S. Forest Service,,,Cooperative Stand-Density Study (CSDS),55.3389,-132.758,Unknown,Unknown,N/A,Experimental Plot,No,No,No,Yes,No,No,Unknown,Unknown,U.S. Forest Service,Unknown,Unknown,Unknown,Unknown,Unknown,Unknown,Unknown,Unknown,Unknown,Unknown,Unknown,Unknown,Unknown,Unknown,Unknown,Location approximate,Unknown,Kellen Nelson,kellen.nelson@usda.gov,Combination: drawn from field maps onto TNF DOQQs & used differentially corrected Trimble GPS pts.
"Cave Creek, Installation 60, Plot 2210",399,Unknown,Active,U.S. Forest Service,,,Cooperative Stand-Density Study (CSDS),55.33916,-132.759,Unknown,Unknown,N/A,Experimental Plot,No,No,No,Yes,No,No,Unknown,Unknown,U.S. Forest Service,Unknown,Unknown,Unknown,Unknown,Unknown,Unknown,Unknown,Unknown,Unknown,Unknown,Unknown,Unknown,Unknown,Unknown,Unknown,Location approximate,Unknown,Kellen Nelson,kellen.nelson@usda.gov,Combination: drawn from field maps onto TNF DOQQs & used differentially corrected Trimble GPS pts.
Ketchikan Salmon Landing,SLXA2,Yes,Active,Marine Exchange of Alaska,,,Unknown,55.34,-131.644,20,Unknown,Unknown,Weather Station,Unknown,Yes,No,No,No,No,Unknown,Yes,National Weather Service,Yes,Yes,Unknown,Unknown,Unknown,Unknown,Unknown,Unknown,Unknown,Unknown,Yes,Unknown,Yes,Yes,Yes,No,Unknown,Unknown,Unknown,Unknown
"Twelvemile, Hanging, ",102,Unknown,Active,U.S. Forest Service,,,Watershed Restoration & Ecosystem Monitoring (WREM),55.34129,-132.722,Unknown,Unknown,N/A,Experimental Plot,No,No,No,Yes,No,No,Unknown,Unknown,U.S. Forest Service,Unknown,Unknown,Unknown,Unknown,Unknown,Unknown,Unknown,Unknown,Unknown,Unknown,Unknown,Unknown,Unknown,Unknown,Unknown,"Site contains six, 40m x 5m silviculture strip plots plus 6 litter and insect traps. Alternate contact is Di Johnson, 586-8819 or David D'Amore, 586-7955.",Unknown,Rick Edwards,richard.t.edwards@usda.gov,Silviculture plot corner coord taken with Trimble ProXT & differentially corrected. Garmin GPS used for litter/insect traps. 100 ft buffer added around site.
"Lower Cave Creek, Installation 63, Plot 402",397,Unknown,Active,U.S. Forest Service,,,Pruning + PCT (Petruncio-JFSL),55.34143,-132.758,Unknown,Unknown,N/A,Experimental Plot,No,No,No,Yes,No,No,Unknown,Unknown,U.S. Forest Service,Unknown,Unknown,Unknown,Unknown,Unknown,Unknown,Unknown,Unknown,Unknown,Unknown,Unknown,Unknown,Unknown,Unknown,Unknown,"control unit. PDIOP high, location approximate.",Unknown,Kellen Nelson,kellen.nelson@usda.gov,Differentially corrected GPS point using Trimble ProXT and PFO. Collected 7/23/2012
"Lower Cave Creek, Installation 63, Plot 401",398,Unknown,Active,U.S. Forest Service,,,Pruning + PCT (Petruncio-JFSL),55.3415,-132.759,Unknown,Unknown,N/A,Experimental Plot,No,No,No,Yes,No,No,Unknown,Unknown,U.S. Forest Service,Unknown,Unknown,Unknown,Unknown,Unknown,Unknown,Unknown,Unknown,Unknown,Unknown,Unknown,Unknown,Unknown,Unknown,Unknown,PCT + pruned with 8' lift,Unknown,Kellen Nelson,kellen.nelson@usda.gov,Differentially corrected GPS point using Trimble ProXT and PFO. Collected 7/23/2012
"Lower Cave Creek, Installation 63, Plot 403",396,Unknown,Active,U.S. Forest Service,,,Pruning + PCT (Petruncio-JFSL),55.34179,-132.758,Unknown,Unknown,N/A,Experimental Plot,No,No,No,Yes,No,No,Unknown,Unknown,U.S. Forest Service,Unknown,Unknown,Unknown,Unknown,Unknown,Unknown,Unknown,Unknown,Unknown,Unknown,Unknown,Unknown,Unknown,Unknown,Unknown,"PCT + pruned with 17' lift. PDIOP high, location approximate.",Unknown,Kellen Nelson,kellen.nelson@usda.gov,Differentially corrected GPS point using Trimble ProXT and PFO. Collected 7/23/2012
"Lower Cave Creek, Installation 63, Plot 404",395,Unknown,Active,U.S. Forest Service,,,Pruning + PCT (Petruncio-JFSL),55.3418,-132.757,Unknown,Unknown,N/A,Experimental Plot,No,No,No,Yes,No,No,Unknown,Unknown,U.S. Forest Service,Unknown,Unknown,Unknown,Unknown,Unknown,Unknown,Unknown,Unknown,Unknown,Unknown,Unknown,Unknown,Unknown,Unknown,Unknown,PCT + pruned with 12' lift,Unknown,Kellen Nelson,kellen.nelson@usda.gov,Differentially corrected GPS point using Trimble ProXT and PFO. Collected 7/23/2012
Government Creek near Ketchikan,GOVA2,Yes,Active,U.S. Geological Survey,Alaska Department of Transportation,,Unknown,55.342778,-131.698889,50,Unknown,Unknown,Stream Gauge,Yes,No,No,No,No,No,Unknown,Unknown,National Weather Service,Unknown,Unknown,Unknown,Unknown,Unknown,Unknown,Unknown,Unknown,Unknown,Unknown,Unknown,Unknown,Unknown,Unknown,Unknown,No,Unknown,Unknown,Unknown,Unknown
Ketchikan Powerhouse,KPHA2,Yes,Active,Ketchikan Public Utilities,,,Unknown,55.343734,-131.632676,100,Unknown,Unknown,Stream Gauge,Yes,No,No,No,No,No,Yes,Unknown,National Weather Service,Unknown,Unknown,Unknown,Unknown,Unknown,Unknown,Unknown,Unknown,Yes,Unknown,Yes,Yes,Unknown,Unknown,Unknown,No,Unknown,Unknown,Unknown,Unknown
Ketchikan Airport,PAKT,Yes,Active,National Weather Service,Federal Aviation Administration,,The ASOS Monitoring Center (AOMC),55.348,-131.702,95,:53,https://mesowest.utah.edu/cgi-bin/droman/meso_base_dyn.cgi?stn=PAKT&unit=0&time=LOCAL,Weather Station,Yes,Yes,No,No,No,No,Yes,Yes,National Weather Service,Yes,Yes,Yes,Yes,Yes,Unknown,Yes,Unknown,Yes,Unknown,Yes,Yes,Yes,Yes,Yes,No,https://www.weather.gov/wrh/timeseries?site=PAKT&hours=72,Aaron Jacobs,aaron.jacobs@noaa.gov,Unknown
Fawn Lake Dam,FLLA2,Yes,Active,Ketchikan Public Utilities,,,Unknown,55.3507,-131.6209,351,Unknown,Unknown,Dam level,Yes,,No,No,No,No,Yes,Yes,National Weather Service,Unknown,Unknown,Unknown,Unknown,Unknown,Unknown,Unknown,Unknown,Yes,Unknown,Yes,No,Yes,Unknown,Unknown,No,Unknown,Unknown,Unknown,Unknown
Ketchikan Harbor,KEXA2,Yes,Active,Marine Exchange of Alaska,,,Unknown,55.351573,-131.6839,15,Unknown,Unknown,Unknown,Yes,Yes,Yes,No,No,No,No,Yes,National Weather Service,Yes,Yes,No,No,No,No,No,No,No,No,Yes,No,Yes,Yes,Yes,No,Unknown,Unknown,Unknown,Unknown
Polk Creek on Polk Inlet,PLKA2,No,Inactive,Unknown,,,Unknown,55.3536,-132.4778,Unknown,Unknown,Unknown,Stream Gauge,Yes,No,No,No,No,No,Unknown,Unknown,National Weather Service,Unknown,Unknown,Unknown,Unknown,Unknown,Unknown,Unknown,Unknown,Unknown,Unknown,Unknown,Unknown,Unknown,Unknown,Unknown,No,Unknown,Unknown,Unknown,Unknown
Bailey Powerhouse,BPWA2,Yes,Active,Ketchikan Public Utilities,,,Unknown,55.3574,-131.69697,20,Unknown,https://mesowest.utah.edu/cgi-bin/droman/meso_base_dyn.cgi?stn=BPWA2&unit=0&time=LOCAL,Unknown,Yes,Yes,No,No,No,No,Yes,Yes,National Weather Service,No,No,No,No,No,No,No,No,Yes,No,Yes,Yes,Yes,No,No,No,Unknown,Unknown,Unknown,Unknown
Ketchikan Lake,KDLA2,Yes,Active,Ketchikan Public Utilities,,,Unknown,55.3599,-131.6216,354,Unknown,Unknown,Dam level,Yes,,No,No,No,No,Unknown,Unknown,National Weather Service,Unknown,Unknown,Unknown,Unknown,Unknown,Unknown,Unknown,Unknown,Unknown,Unknown,Unknown,Unknown,Unknown,Unknown,Unknown,No,Unknown,Unknown,Unknown,Unknown
Carlanna Lake Dam,CARA2,Yes,Active,Ketchikan Public Utilities,,,Unknown,55.3682,-131.6913,528,Unknown,Unknown,Dam level,Yes,,No,No,No,No,Unknown,Unknown,National Weather Service,Unknown,Unknown,Unknown,Unknown,Unknown,Unknown,Unknown,Unknown,Unknown,Unknown,Unknown,Unknown,Unknown,Unknown,Unknown,No,Unknown,Unknown,Unknown,Unknown
Beaver Falls Powerhouse,KTNA2,Unknown,Active,Ketchikan Public Utilities,,,Unknown,55.3796,-131.4704,71,Unknown,https://mesowest.utah.edu/cgi-bin/droman/meso_base_dyn.cgi?stn=KTNA2&unit=0&time=LOCAL,Unknown,Yes,Yes,No,No,No,No,Yes,Yes,MesoWest,No,No,No,No,No,No,No,No,No,No,No,No,No,No,No,"Temp, Precipitation 1hr in",Unknown,Unknown,Unknown,Unknown
Silvis Powerhouse,SLVA2,Yes,Active,Ketchikan Public Utilities,,,Unknown,55.3814,-131.5176,820,Unknown,Unknown,Unknown,Yes,Yes,No,No,No,No,Yes,Yes,National Weather Service,No,No,No,No,No,No,No,No,Yes,No,Yes,Yes,Yes,No,No,"Temp, Precipitation 1hr in",Unknown,Unknown,Unknown,Unknown
Twin Island Federal Aviation Administration,KTNCW,Yes,Active,Federal Aviation Administration,,,Unknown,55.38303,-131.26648,Unknown,Unknown,Unknown,Weather Station,Unknown,Yes,No,No,No,No,Unknown,Yes,National Weather Service,Unknown,Yes,Yes,Unknown,Unknown,Unknown,Unknown,Unknown,Unknown,Unknown,Unknown,Unknown,Unknown,Unknown,Unknown,No,Unknown,Unknown,Unknown,Unknown
Fish C NR Ketchikan AK,15072000,Unknown,Active,U.S. Geological Survey,,,Unknown,55.3916038,-131.1955833,Unknown,Unknown,N/A,Stream Gauge,Yes,No,No,No,No,No,Unknown,Unknown,U.S. Geological Survey,Unknown,Unknown,Unknown,Unknown,Unknown,Unknown,Unknown,Unknown,Unknown,Unknown,Unknown,Unknown,Unknown,Unknown,Unknown,Discharge (ft3/s),https://waterdata.usgs.gov/nwis/inventory?site_no=15072000,Jeff Conaway,jconaway@usgs.gov,Unknown
Fish Creek near Ketchikan,FCKA2,Yes,Active,U.S. Geological Survey,,,Unknown,55.391944,-131.193889,Unknown,Unknown,Unknown,Stream Gauge,Yes,No,No,No,No,No,Unknown,Unknown,National Weather Service,Unknown,Unknown,Unknown,Unknown,Unknown,Unknown,Unknown,Unknown,Unknown,Unknown,Unknown,Unknown,Unknown,Unknown,Unknown,No,Unknown,Unknown,Unknown,Unknown
Old Tom Creek near Kasaan,OTCA2,Yes,Inactive,U.S. Geological Survey,,,Unknown,55.395556,-132.406944,10,Unknown,Unknown,Stream Gauge,Yes,No,No,No,No,No,Unknown,Unknown,National Weather Service,Unknown,Unknown,Unknown,Unknown,Unknown,Unknown,Unknown,Unknown,Unknown,Unknown,Unknown,Unknown,Unknown,Unknown,Unknown,No,Unknown,Unknown,Unknown,Unknown
Ward Cove,WCXA2,Yes,Active,Marine Exchange of Alaska,,,Unknown,55.402,-131.729,Unknown,Unknown,Unknown,Weather Station,Unknown,Unknown,No,No,No,No,Unknown,Unknown,National Weather Service,Unknown,Unknown,Unknown,Unknown,Unknown,Unknown,Unknown,Unknown,Unknown,Unknown,Unknown,Unknown,Unknown,Unknown,Unknown,No,Unknown,Unknown,Unknown,Unknown
"Old Frank's Creek III, Installation 27, Plot 2000",394,Unknown,Active,U.S. Forest Service,,,Cooperative Stand-Density Study (CSDS),55.42657,-132.483,Unknown,Unknown,N/A,Experimental Plot,No,No,No,Yes,No,No,Unknown,Unknown,U.S. Forest Service,Unknown,Unknown,Unknown,Unknown,Unknown,Unknown,Unknown,Unknown,Unknown,Unknown,Unknown,Unknown,Unknown,Unknown,Unknown,Location approximate.,Unknown,Kellen Nelson,kellen.nelson@usda.gov,"Combination: drawn from field maps onto TNF DOQQs, and used PLGR gps point(s)"
"Old Frank's Creek III, Installation 27, Plot 2031",393,Unknown,Active,U.S. Forest Service,,,Cooperative Stand-Density Study (CSDS),55.42697,-132.486,Unknown,Unknown,N/A,Experimental Plot,No,No,No,Yes,No,No,Unknown,Unknown,U.S. Forest Service,Unknown,Unknown,Unknown,Unknown,Unknown,Unknown,Unknown,Unknown,Unknown,Unknown,Unknown,Unknown,Unknown,Unknown,Unknown,Location approximate.,Unknown,Kellen Nelson,kellen.nelson@usda.gov,"Combination: drawn from field maps onto TNF DOQQs, and used PLGR gps point(s)"
"Old Frank's Creek III, Installation 27, Plot 2010",391,Unknown,Active,U.S. Forest Service,,,Cooperative Stand-Density Study (CSDS),55.42716,-132.484,Unknown,Unknown,N/A,Experimental Plot,No,No,No,Yes,No,No,Unknown,Unknown,U.S. Forest Service,Unknown,Unknown,Unknown,Unknown,Unknown,Unknown,Unknown,Unknown,Unknown,Unknown,Unknown,Unknown,Unknown,Unknown,Unknown,Location approximate.,Unknown,Kellen Nelson,kellen.nelson@usda.gov,"Combination: drawn from field maps onto TNF DOQQs, and used PLGR gps point(s)"
"Old Frank's Creek III, Installation 27, Plot 2020",506,Unknown,Active,U.S. Forest Service,,,Cooperative Stand-Density Study (CSDS),55.42719,-132.485,Unknown,Unknown,N/A,Experimental Plot,No,No,No,Yes,No,No,Unknown,Unknown,U.S. Forest Service,Unknown,Unknown,Unknown,Unknown,Unknown,Unknown,Unknown,Unknown,Unknown,Unknown,Unknown,Unknown,Unknown,Unknown,Unknown,Location approximate.,Unknown,Kellen Nelson,kellen.nelson@usda.gov,"Combination: drawn from field maps onto TNF DOQQs, and used PLGR gps point(s)"
Lake Connell Dam,LCDA2,Yes,Active,Ward Cove Group,,,Unknown,55.4311,-131.671667,213,Unknown,Unknown,Dam level,Yes,,No,No,No,No,Unknown,Unknown,National Weather Service,Unknown,Unknown,Unknown,Unknown,Unknown,Unknown,Unknown,Unknown,Unknown,Unknown,Unknown,Unknown,Unknown,Unknown,Unknown,No,Unknown,Unknown,Unknown,Unknown
Guard Island,GIXA2,Yes,Active,Marine Exchange of Alaska,,,Unknown,55.4465,-131.8813,10,Unknown,Unknown,Unknown,Yes,Yes,Yes,No,No,No,No,Yes,National Weather Service,Yes,Yes,No,No,No,No,No,No,No,No,Yes,No,Yes,Yes,Yes,No,https://www.weather.gov/wrh/timeseries?site=GIXA2&hours=72,Unknown,Unknown,Unknown
"Whistle, Unit 1, ",505,Unknown,Active,U.S. Forest Service,,,Yellow Cedar Steckling,55.44677,-131.618,Unknown,Unknown,N/A,Experimental Plot,No,No,No,Yes,No,No,Unknown,Unknown,U.S. Forest Service,Unknown,Unknown,Unknown,Unknown,Unknown,Unknown,Unknown,Unknown,Unknown,Unknown,Unknown,Unknown,Unknown,Unknown,Unknown,No,Unknown,Kellen Nelson,kellen.nelson@usda.gov,Drawn from field maps onto TNF DOQQs
Prince of Wales: Low Site,TBD,Yes,Active,U.S. Forest Service,,Alaska Youth Stewards,Alaska Youth Stewards,55.456111,-133.049722,130,Unknown,N/A,Rain Gauge,Yes,Yes,No,No,No,No,Yes,Yes,Sitka Sound Science Center,Yes,No,No,No,No,No,No,No,No,No,No,Unknown,Unknown,Unknown,Unknown,"Measures every 5 minutes, data in csv format, cellular to cloud data transfer",None at this time,KK Pressian,katherine.prussian@usda.gov,Installed June 2024
Hollis Hwy Road Weather Information System,HOHA2,Yes,Active,Alaska Department of Transportation,,,Alaska Road Weather Information System,55.458,-132.8412,316,Unknown,Unknown,Weather Station,Yes,Yes,No,No,No,No,Yes,Yes,National Weather Service,Yes,Yes,Yes,Unknown,Unknown,Unknown,Unknown,Unknown,Yes,Unknown,Yes,Yes,Yes,Yes,Yes,No,https://www.weather.gov/wrh/timeseries?site=HOHA2&hours=72,Unknown,Unknown,Unknown
Harris River Pass Federal Aviation Administration,HYLAW,Yes,Active,Federal Aviation Administration,,,Unknown,55.45857,-132.84369,Unknown,Unknown,Unknown,Weather Station,Unknown,Yes,No,No,No,No,Unknown,Yes,National Weather Service,Unknown,Yes,Yes,Unknown,Unknown,Unknown,Unknown,Unknown,Unknown,Unknown,Unknown,Unknown,Unknown,Unknown,Unknown,No,Unknown,Unknown,Unknown,Unknown
"Harris, Unit 4",464,Unknown,Active,U.S. Forest Service,,,Prince of Wales Commercial Thinning (POW-CT),55.45893,-132.794,Unknown,Unknown,N/A,Experimental Plot,No,No,No,Yes,No,No,Unknown,Unknown,U.S. Forest Service,Unknown,Unknown,Unknown,Unknown,Unknown,Unknown,Unknown,Unknown,Unknown,Unknown,Unknown,Unknown,Unknown,Unknown,Unknown,No,Unknown,Kellen Nelson,kellen.nelson@usda.gov,Field traverses by POW RD staff and later updated with differentially corrected GPS points taken by FSL staff and orthophoto reference
Harris R 1.2 MI AB Mouth NR Hollis AK,15085697,Unknown,Active,U.S. Geological Survey,,,Unknown,55.45931667,-132.716261,Unknown,Unknown,N/A,Stream Gauge,Yes,No,No,No,No,No,Unknown,Unknown,U.S. Geological Survey,Unknown,Unknown,Unknown,Unknown,Unknown,Unknown,Unknown,Unknown,Unknown,Unknown,Unknown,Unknown,Unknown,Unknown,Unknown,Discharge (ft3/s),https://waterdata.usgs.gov/monitoring-location/15085697/#parameterCode=00065&period=P7D&showMedian=false,Jeff Conaway,jconaway@usgs.gov,Unknown
"Harris, Unit 3",467,Unknown,Active,U.S. Forest Service,,,Prince of Wales Commercial Thinning (POW-CT),55.45939,-132.796,Unknown,Unknown,N/A,Experimental Plot,No,No,No,Yes,No,No,Unknown,Unknown,U.S. Forest Service,Unknown,Unknown,Unknown,Unknown,Unknown,Unknown,Unknown,Unknown,Unknown,Unknown,Unknown,Unknown,Unknown,Unknown,Unknown,No,Unknown,Kellen Nelson,kellen.nelson@usda.gov,Field traverses by POW RD staff and later updated with differentially corrected GPS points taken by FSL staff and orthophoto reference
"Harris, Unit 5",465,Unknown,Active,U.S. Forest Service,,,Prince of Wales Commercial Thinning (POW-CT),55.45996,-132.789,Unknown,Unknown,N/A,Experimental Plot,No,No,No,Yes,No,No,Unknown,Unknown,U.S. Forest Service,Unknown,Unknown,Unknown,Unknown,Unknown,Unknown,Unknown,Unknown,Unknown,Unknown,Unknown,Unknown,Unknown,Unknown,Unknown,No,Unknown,Kellen Nelson,kellen.nelson@usda.gov,Field traverses by POW RD staff and later updated with differentially corrected GPS points taken by FSL staff and orthophoto reference
"Harris stripcuts 2, POW, ",95,Unknown,Active,U.S. Forest Service,,,Yellow-cedar common garden,55.46032,-132.8,Unknown,Unknown,N/A,Experimental Plot,No,No,No,Yes,No,No,Unknown,Unknown,U.S. Forest Service,Unknown,Unknown,Unknown,Unknown,Unknown,Unknown,Unknown,Unknown,Unknown,Unknown,Unknown,Unknown,Unknown,Unknown,Unknown,17 genetic seedlots planted as 800 seedlings,Unknown,David D'Amore,david.v.damore@usda.gov,"Coordinate for strip corners taken with Garmin, points displayed on orthophoto, and polygon digitized using corners & photo."
"Harris stripcuts 1, POW, ",96,Unknown,Active,U.S. Forest Service,,,Yellow-cedar common garden,55.46048,-132.799,Unknown,Unknown,N/A,Experimental Plot,No,No,No,Yes,No,No,Unknown,Unknown,U.S. Forest Service,Unknown,Unknown,Unknown,Unknown,Unknown,Unknown,Unknown,Unknown,Unknown,Unknown,Unknown,Unknown,Unknown,Unknown,Unknown,16 genetic seedlots planted as 800 seedlings. This site is FENCED.,Unknown,David D'Amore,david.v.damore@usda.gov,"Coordinate for strip corners taken with Garmin, points displayed on orthophoto, and polygon digitized using corners & photo."
"Harris, Unit 2",463,Unknown,Active,U.S. Forest Service,,,Prince of Wales Commercial Thinning (POW-CT),55.46092,-132.794,Unknown,Unknown,N/A,Experimental Plot,No,No,No,Yes,No,No,Unknown,Unknown,U.S. Forest Service,Unknown,Unknown,Unknown,Unknown,Unknown,Unknown,Unknown,Unknown,Unknown,Unknown,Unknown,Unknown,Unknown,Unknown,Unknown,No,Unknown,Kellen Nelson,kellen.nelson@usda.gov,Field traverses by POW RD staff and later updated with differentially corrected GPS points taken by FSL staff and orthophoto reference
"Harris, Unit 1, ",466,Unknown,Active,U.S. Forest Service,,,Prince of Wales Commercial Thinning (POW-CT),55.46293,-132.794,Unknown,Unknown,N/A,Experimental Plot,No,No,No,Yes,No,No,Unknown,Unknown,U.S. Forest Service,Unknown,Unknown,Unknown,Unknown,Unknown,Unknown,Unknown,Unknown,Unknown,Unknown,Unknown,Unknown,Unknown,Unknown,Unknown,No,Unknown,Kellen Nelson,kellen.nelson@usda.gov,Field traverses by POW RD staff and later updated with differentially corrected GPS points taken by FSL staff and orthophoto reference
Prince of Wales: High Site,TBD,Yes,Active,U.S. Forest Service,Sitka Sound Science Center,Alaska Youth Stewards,Alaska Youth Stewards,55.463056,-133.080556,2800,Unknown,N/A,Rain Gauge,Yes,Yes,No,No,No,No,Yes,Yes,Sitka Sound Science Center,Yes,No,No,No,No,No,No,No,No,No,No,Unknown,Unknown,Unknown,Unknown,"Measures every 5 minutes, data in csv format, cellular to cloud data transfer",None at this time,KK Pressian,katherine.prussian@usda.gov,Installed June 2024
"Harris River, Installation 2, Plot 1080",504,Unknown,Active,U.S. Forest Service,,,Cooperative Stand-Density Study (CSDS),55.46384,-132.712,Unknown,Unknown,N/A,Experimental Plot,No,No,No,Yes,No,No,Unknown,Unknown,U.S. Forest Service,Unknown,Unknown,Unknown,Unknown,Unknown,Unknown,Unknown,Unknown,Unknown,Unknown,Unknown,Unknown,Unknown,Unknown,Unknown,No,Unknown,Kellen Nelson,kellen.nelson@usda.gov,Drawn from field maps onto TNF DOQQs
"Harris River, Installation 2, Plot 1070",503,Unknown,Active,U.S. Forest Service,,,Cooperative Stand-Density Study (CSDS),55.4641,-132.713,Unknown,Unknown,N/A,Experimental Plot,No,No,No,Yes,No,No,Unknown,Unknown,U.S. Forest Service,Unknown,Unknown,Unknown,Unknown,Unknown,Unknown,Unknown,Unknown,Unknown,Unknown,Unknown,Unknown,Unknown,Unknown,Unknown,No,Unknown,Kellen Nelson,kellen.nelson@usda.gov,Drawn from field maps onto TNF DOQQs
"Harris River, Installation 2, Plot 1060",502,Unknown,Active,U.S. Forest Service,,,Cooperative Stand-Density Study (CSDS),55.46444,-132.712,Unknown,Unknown,N/A,Experimental Plot,No,No,No,Yes,No,No,Unknown,Unknown,U.S. Forest Service,Unknown,Unknown,Unknown,Unknown,Unknown,Unknown,Unknown,Unknown,Unknown,Unknown,Unknown,Unknown,Unknown,Unknown,Unknown,No,Unknown,Kellen Nelson,kellen.nelson@usda.gov,Drawn from field maps onto TNF DOQQs
"Harris River, Installation 2, Plot 1050",501,Unknown,Active,U.S. Forest Service,,,Cooperative Stand-Density Study (CSDS),55.4648,-132.713,Unknown,Unknown,N/A,Experimental Plot,No,No,No,Yes,No,No,Unknown,Unknown,U.S. Forest Service,Unknown,Unknown,Unknown,Unknown,Unknown,Unknown,Unknown,Unknown,Unknown,Unknown,Unknown,Unknown,Unknown,Unknown,Unknown,No,Unknown,Kellen Nelson,kellen.nelson@usda.gov,Drawn from field maps onto TNF DOQQs
Prince of Wales: Medium Site,TBD,Yes,Active,U.S. Forest Service,,Alaska Youth Stewards,Alaska Youth Stewards,55.466111,-133.040556,1000,Unknown,N/A,Rain Gauge,Yes,Yes,No,No,No,No,Yes,Yes,Sitka Sound Science Center,Yes,No,No,No,No,No,No,No,No,No,No,Unknown,Unknown,Unknown,Unknown,"Measures every 5 minutes, data in csv format, cellular to cloud data transfer",None at this time,KK Pressian,katherine.prussian@usda.gov,Installed June 2024
Harris River at Harris River Campground near Hollis,HRCA2,Yes,Active,U.S. Geological Survey,,,Unknown,55.468055,-132.85722,320,Unknown,Unknown,Stream Gauge,Yes,No,No,No,No,No,Unknown,Unknown,National Weather Service,Unknown,Unknown,Unknown,Unknown,Unknown,Unknown,Unknown,Unknown,Unknown,Unknown,Unknown,Unknown,Unknown,Unknown,Unknown,No,Unknown,Unknown,Unknown,Unknown
Craig Seismometer,CGNA2,Unknown,Inactive,Unknown,,,Unknown,55.469,-133.1236,199,Unknown,Unknown,Seismometer,No,No,No,No,Yes,No,Unknown,Unknown,National Weather Service,Unknown,Unknown,Unknown,Unknown,Unknown,Unknown,Unknown,Unknown,Unknown,Unknown,Unknown,Unknown,Unknown,Unknown,Unknown,No,Unknown,Unknown,Unknown,Unknown
Craig Weather station,CRGA2,Yes,Active,National Weather Service,Hydrometeorological Automated Data System,,Remote Automated Weather Station,55.47389,-133.136,91,Unknown,https://mesowest.utah.edu/cgi-bin/droman/meso_base_dyn.cgi?stn=CRGA2&unit=0&time=LOCAL,Weather Station,Yes,Yes,No,No,No,No,Yes,Yes,National Weather Service,Yes,Yes,Unknown,Unknown,Unknown,Unknown,Unknown,Unknown,Yes,Unknown,Yes,Yes,Yes,Yes,Yes,"Temperature, Dew Point, Relative Humidity, Wind Speed, Wind Direction, Pressure, Altimeter, Precipitation accumulated in, Precipitation 1hr in",https://www.weather.gov/wrh/timeseries?site=CRGA2&hours=72,Unknown,Unknown,Unknown
Maybeso Creek,MABA2,Yes,Inactive,U.S. Department of the Interior,U.S. Geological Survey,,Unknown,55.4906,-132.6753,Unknown,Unknown,Unknown,Stream Gauge,Yes,No,No,No,No,No,Unknown,Unknown,National Weather Service,Unknown,Unknown,Unknown,Unknown,Unknown,Unknown,Unknown,Unknown,Unknown,Unknown,Unknown,Unknown,Unknown,Unknown,Unknown,No,Unknown,Unknown,Unknown,Unknown
"Maybeso, Good Example, ",101,Unknown,Active,U.S. Forest Service,,,Watershed Restoration & Ecosystem Monitoring (WREM),55.49344,-132.666,Unknown,Unknown,N/A,Experimental Plot,No,No,No,Yes,No,No,Unknown,Unknown,U.S. Forest Service,Unknown,Unknown,Unknown,Unknown,Unknown,Unknown,Unknown,Unknown,Unknown,Unknown,Unknown,Unknown,Unknown,Unknown,Unknown,"Site contains 6 litter and insect traps. Wood Compatability Initiative (WCI) site was also located here. Alternate contact is Di Johnson, 586-8819 or David D'Amore, 586-7955.",Unknown,Rick Edwards,richard.t.edwards@usda.gov,Garmin GPS used for litter/insect traps. 100 ft buffer added around site.
"Maybeso, Unit 4",477,Unknown,Active,U.S. Forest Service,,,Prince of Wales Commercial Thinning (POW-CT),55.49763,-132.684,Unknown,Unknown,N/A,Experimental Plot,No,No,No,Yes,No,No,Unknown,Unknown,U.S. Forest Service,Unknown,Unknown,Unknown,Unknown,Unknown,Unknown,Unknown,Unknown,Unknown,Unknown,Unknown,Unknown,Unknown,Unknown,Unknown,map updated Aug 07,Unknown,Kellen Nelson,kellen.nelson@usda.gov,Field traverses by POW RD staff and later updated with differentially corrected GPS points taken by FSL staff and orthophoto reference
"Maybeso Valley, Installation 1, Plot 104",500,Unknown,Active,U.S. Forest Service,,,Cooperative Stand-Density Study (CSDS),55.4983,-132.682,Unknown,Unknown,N/A,Experimental Plot,No,No,No,Yes,No,No,Unknown,Unknown,U.S. Forest Service,Unknown,Unknown,Unknown,Unknown,Unknown,Unknown,Unknown,Unknown,Unknown,Unknown,Unknown,Unknown,Unknown,Unknown,Unknown,No,Unknown,Kellen Nelson,kellen.nelson@usda.gov,"Combination: drawn from field maps onto TNF DOQQs, and used PLGR gps point(s)"
"Maybeso Valley, Installation 1, Plot 103",499,Unknown,Active,U.S. Forest Service,,,Cooperative Stand-Density Study (CSDS),55.49847,-132.681,Unknown,Unknown,N/A,Experimental Plot,No,No,No,Yes,No,No,Unknown,Unknown,U.S. Forest Service,Unknown,Unknown,Unknown,Unknown,Unknown,Unknown,Unknown,Unknown,Unknown,Unknown,Unknown,Unknown,Unknown,Unknown,Unknown,No,Unknown,Kellen Nelson,kellen.nelson@usda.gov,Drawn from field maps onto TNF DOQQs
Caamano Point,CPTA2,Unknown,Inactive,Unknown,,,Geostationary Satellite Server,55.4986,-131.9717,Unknown,Unknown,Unknown,Geostationary Satellite,No,No,No,No,No,Yes,Unknown,Unknown,National Weather Service,Unknown,Unknown,Unknown,Unknown,Unknown,Unknown,Unknown,Unknown,Unknown,Unknown,Unknown,Unknown,Unknown,Unknown,Unknown,No,Unknown,Unknown,Unknown,Unknown
"Maybeso, Unit 2",474,Unknown,Active,U.S. Forest Service,,,Prince of Wales Commercial Thinning (POW-CT),55.49893,-132.688,Unknown,Unknown,N/A,Experimental Plot,No,No,No,Yes,No,No,Unknown,Unknown,U.S. Forest Service,Unknown,Unknown,Unknown,Unknown,Unknown,Unknown,Unknown,Unknown,Unknown,Unknown,Unknown,Unknown,Unknown,Unknown,Unknown,No,Unknown,Kellen Nelson,kellen.nelson@usda.gov,Field traverses by POW RD staff and later updated with differentially corrected GPS points taken by FSL staff and orthophoto reference
"Maybeso Valley, Installation 1, Plot 101",498,Unknown,Active,U.S. Forest Service,,,Cooperative Stand-Density Study (CSDS),55.4991,-132.682,Unknown,Unknown,N/A,Experimental Plot,No,No,No,Yes,No,No,Unknown,Unknown,U.S. Forest Service,Unknown,Unknown,Unknown,Unknown,Unknown,Unknown,Unknown,Unknown,Unknown,Unknown,Unknown,Unknown,Unknown,Unknown,Unknown,No,Unknown,Kellen Nelson,kellen.nelson@usda.gov,"Combination: drawn from field maps onto TNF DOQQs, and used PLGR gps point(s)"
"Maybeso, Unit 5",469,Unknown,Active,U.S. Forest Service,,,Prince of Wales Commercial Thinning (POW-CT),55.49919,-132.694,Unknown,Unknown,N/A,Experimental Plot,No,No,No,Yes,No,No,Unknown,Unknown,U.S. Forest Service,Unknown,Unknown,Unknown,Unknown,Unknown,Unknown,Unknown,Unknown,Unknown,Unknown,Unknown,Unknown,Unknown,Unknown,Unknown,No,Unknown,Kellen Nelson,kellen.nelson@usda.gov,Field traverses by POW RD staff and later updated with differentially corrected GPS points taken by FSL staff and orthophoto reference
"Maybeso, Unit 1",468,Unknown,Active,U.S. Forest Service,,,Prince of Wales Commercial Thinning (POW-CT),55.49932,-132.684,Unknown,Unknown,N/A,Experimental Plot,No,No,No,Yes,No,No,Unknown,Unknown,U.S. Forest Service,Unknown,Unknown,Unknown,Unknown,Unknown,Unknown,Unknown,Unknown,Unknown,Unknown,Unknown,Unknown,Unknown,Unknown,Unknown,No,Unknown,Kellen Nelson,kellen.nelson@usda.gov,Field traverses by POW RD staff and later updated with differentially corrected GPS points taken by FSL staff and orthophoto reference
"Maybeso Valley, Installation 1, Plot 102",497,Unknown,Active,U.S. Forest Service,,,Cooperative Stand-Density Study (CSDS),55.49944,-132.681,Unknown,Unknown,N/A,Experimental Plot,No,No,No,Yes,No,No,Unknown,Unknown,U.S. Forest Service,Unknown,Unknown,Unknown,Unknown,Unknown,Unknown,Unknown,Unknown,Unknown,Unknown,Unknown,Unknown,Unknown,Unknown,Unknown,No,Unknown,Kellen Nelson,kellen.nelson@usda.gov,Drawn from field maps onto TNF DOQQs
"Maybeso, Unit 3",475,Unknown,Active,U.S. Forest Service,,,Prince of Wales Commercial Thinning (POW-CT),55.49966,-132.69,Unknown,Unknown,N/A,Experimental Plot,No,No,No,Yes,No,No,Unknown,Unknown,U.S. Forest Service,Unknown,Unknown,Unknown,Unknown,Unknown,Unknown,Unknown,Unknown,Unknown,Unknown,Unknown,Unknown,Unknown,Unknown,Unknown,No,Unknown,Kellen Nelson,kellen.nelson@usda.gov,Field traverses by POW RD staff and later updated with differentially corrected GPS points taken by FSL staff and orthophoto reference
"Maybeso, , ",494,Unknown,Active,U.S. Forest Service,,,Maybeso Experimental Forest,55.49995,-132.731,Unknown,Unknown,N/A,Experimental Plot,No,No,No,Yes,No,No,Unknown,Unknown,U.S. Forest Service,Unknown,Unknown,Unknown,Unknown,Unknown,Unknown,Unknown,Unknown,Unknown,Unknown,Unknown,Unknown,Unknown,Unknown,Unknown,Many ongoing projects. Please contact Mike McClellan or other FSL scientists when planning here.,Unknown,David D'Amore,david.v.damore@usda.gov,Experimental forest boundary taken from TNF GIS layer lstat_alp
"Maybeso Valley, Installation 1, Plot 105",476,Unknown,Active,U.S. Forest Service,,,Cooperative Stand-Density Study (CSDS),55.50107,-132.684,Unknown,Unknown,N/A,Experimental Plot,No,No,No,Yes,No,No,Unknown,Unknown,U.S. Forest Service,Unknown,Unknown,Unknown,Unknown,Unknown,Unknown,Unknown,Unknown,Unknown,Unknown,Unknown,Unknown,Unknown,Unknown,Unknown,No,Unknown,Kellen Nelson,kellen.nelson@usda.gov,"Combination: drawn from field maps onto TNF DOQQs, and used PLGR gps point(s)"
"Upper Maybeso Valley, Installation 5, Plot 119",431,Unknown,Active,U.S. Forest Service,,,Cooperative Stand-Density Study (CSDS),55.50291,-132.69,Unknown,Unknown,N/A,Experimental Plot,No,No,No,Yes,No,No,Unknown,Unknown,U.S. Forest Service,Unknown,Unknown,Unknown,Unknown,Unknown,Unknown,Unknown,Unknown,Unknown,Unknown,Unknown,Unknown,Unknown,Unknown,Unknown,No,Unknown,Kellen Nelson,kellen.nelson@usda.gov,"Combination: drawn from field maps onto TNF DOQQs, and used PLGR gps point(s)"
"Upper Maybeso Valley, Installation 5, Plot 118",496,Unknown,Active,U.S. Forest Service,,,Cooperative Stand-Density Study (CSDS),55.50342,-132.69,Unknown,Unknown,N/A,Experimental Plot,No,No,No,Yes,No,No,Unknown,Unknown,U.S. Forest Service,Unknown,Unknown,Unknown,Unknown,Unknown,Unknown,Unknown,Unknown,Unknown,Unknown,Unknown,Unknown,Unknown,Unknown,Unknown,No,Unknown,Kellen Nelson,kellen.nelson@usda.gov,"Combination: drawn from field maps onto TNF DOQQs, and used PLGR gps point(s)"
"Upper Maybeso Valley, Installation 5, Plot 117",495,Unknown,Active,U.S. Forest Service,,,Cooperative Stand-Density Study (CSDS),55.50384,-132.691,Unknown,Unknown,N/A,Experimental Plot,No,No,No,Yes,No,No,Unknown,Unknown,U.S. Forest Service,Unknown,Unknown,Unknown,Unknown,Unknown,Unknown,Unknown,Unknown,Unknown,Unknown,Unknown,Unknown,Unknown,Unknown,Unknown,No,Unknown,Kellen Nelson,kellen.nelson@usda.gov,"Combination: drawn from field maps onto TNF DOQQs, and used PLGR gps point(s)"
"Experiment 3 (25-35 years), Revilla Marble, ",566,Unknown,Active,U.S. Forest Service,,,Tongass-Wide Young Growth Study (TWYGS),55.5104,-131.273,Unknown,Unknown,N/A,Experimental Plot,No,No,No,Yes,No,No,Unknown,Unknown,U.S. Forest Service,Unknown,Unknown,Unknown,Unknown,Unknown,Unknown,Unknown,Unknown,Unknown,Unknown,Unknown,Unknown,Unknown,Unknown,Unknown,"StandID 746050027. No permanent plots installed, but the control & 1:2 pruning treatments each have 1 fenced & 1 unfenced deer exclosure.",Unknown,Kellen Nelson,kellen.nelson@usda.gov,"Original boundaries from field traverses by RD staff. Bndrys updated using differentially corrected GPS data & digitizing from 1997 TNF DOQQs, 2006 Census Bureau orthos, & Google Earth"
Misty Fjords Federal Aviation Administration,QA6BW,Yes,Active,Federal Aviation Administration,,,Unknown,55.51256,-130.90891,Unknown,Unknown,Unknown,Weather Station,Unknown,Yes,No,No,No,No,Unknown,Yes,National Weather Service,Unknown,Yes,Yes,Unknown,Unknown,Unknown,Unknown,Unknown,Unknown,Unknown,Unknown,Unknown,Unknown,Unknown,Unknown,No,https://www.weather.gov/wrh/timeseries?site=QA6BW&hours=72,Unknown,Unknown,Unknown
Leask Creek at Shelter Cove NR Ketchikan AK,15068040,Unknown,Active,U.S. Geological Survey,,,Unknown,55.51909057,-131.5244658,Unknown,Unknown,N/A,Stream Gauge,Yes,No,No,No,No,No,Unknown,Unknown,U.S. Geological Survey,Unknown,Unknown,Unknown,Unknown,Unknown,Unknown,Unknown,Unknown,Unknown,Unknown,Unknown,Unknown,Unknown,Unknown,Unknown,Discharge (ft3/s),https://waterdata.usgs.gov/monitoring-location/15068040/#parameterCode=00065&period=P7D&showMedian=false,Jeff Conaway,jconaway@usgs.gov,Unknown
Leask Creek,LSCA2,Yes,Active,U.S. Department of the Interior,U.S. Geological Survey,,Unknown,55.51944,-131.52277,200,Unknown,Unknown,Stream Gauge,Yes,No,No,No,No,No,Unknown,Yes,National Weather Service,Unknown,Unknown,Unknown,Unknown,Unknown,Unknown,Unknown,Unknown,Unknown,Unknown,Unknown,Unknown,Unknown,Unknown,Unknown,No,Unknown,Unknown,Unknown,Unknown
Shelter Cove,SHLA2,Yes,Active,U.S. Forest Service,The Bureau of Land Management,,Remote Automated Weather Station,55.5297,-131.3661,489,:55,https://mesowest.utah.edu/cgi-bin/droman/meso_base_dyn.cgi?stn=SHLA2&unit=0&time=LOCAL,Weather Station,Yes,Yes,No,No,No,No,Yes,Yes,National Weather Service,Yes,Yes,Unknown,Unknown,Unknown,Unknown,Unknown,Unknown,No,Unknown,Yes,Yes,Yes,Yes,Yes,"2.0m Temperature F, 2.0m Dew Point  F, 2.0m Wet bulb temperature  F, 2.0m Relative Humidity %, 6.1m Wind Speed mph, 6.1m Wind Gust mph, 6.1m Wind Direction, Solar Radiation W/m*m, Precipitation accumulated in , Quality Control",https://www.weather.gov/wrh/timeseries?site=SHLA2&hours=72,Unknown,Unknown,Unknown
"Experiment 3 (25-35 years), Revilla George W, ",565,Unknown,Active,U.S. Forest Service,,,Tongass-Wide Young Growth Study (TWYGS),55.53099,-131.463,Unknown,Unknown,N/A,Experimental Plot,No,No,No,Yes,No,No,Unknown,Unknown,U.S. Forest Service,Unknown,Unknown,Unknown,Unknown,Unknown,Unknown,Unknown,Unknown,Unknown,Unknown,Unknown,Unknown,Unknown,Unknown,Unknown,"StandID 747040002. Five, 1/5-acre permanent plots are installed in each treatment unit. The control & 1:2 pruning treatments each have 1 fenced & 1 unfenced deer exclosure.",Unknown,Kellen Nelson,kellen.nelson@usda.gov,"Original boundaries from field traverses by RD staff. Bndrys updated using differentially corrected GPS data & digitizing from 1997 TNF DOQQs, 2006 Census Bureau orthos, & Google Earth"
Kassan Federal Aviation Administration,KXAWC,Yes,Active,Federal Aviation Administration,,,Unknown,55.53953,-132.40361,Unknown,Unknown,Unknown,Weather Station,Unknown,Yes,No,No,No,No,Unknown,Yes,National Weather Service,Unknown,Yes,Yes,Unknown,Unknown,Unknown,Unknown,Unknown,Unknown,Unknown,Unknown,Unknown,Unknown,Unknown,Unknown,No,https://www.weather.gov/wrh/timeseries?site=KXAWC&hours=72,Unknown,Unknown,Unknown
"Experiment 1 (0-5 years), Revilla George E, ",564,Unknown,Active,U.S. Forest Service,,,Tongass-Wide Young Growth Study (TWYGS),55.54037,-131.437,Unknown,Unknown,N/A,Experimental Plot,No,No,No,Yes,No,No,Unknown,Unknown,U.S. Forest Service,Unknown,Unknown,Unknown,Unknown,Unknown,Unknown,Unknown,Unknown,Unknown,Unknown,Unknown,Unknown,Unknown,Unknown,Unknown,StandID 747030092. Control and 80 TPA treatments have 1 fenced deer exclosure & 1 unfenced paired area. Number of 1/5-acre permanent plots still to be determined.,Unknown,Kellen Nelson,kellen.nelson@usda.gov,"Original boundaries from field traverses by RD staff. Bndrys updated using differentially corrected GPS data & digitizing from 1997 TNF DOQQs, 2006 Census Bureau orthos, & Google Earth"
"Experiment 2 (15-25 years), Revilla Shelter, ",508,Unknown,Active,U.S. Forest Service,,,Tongass-Wide Young Growth Study (TWYGS),55.55115,-131.356,Unknown,Unknown,N/A,Experimental Plot,No,No,No,Yes,No,No,Unknown,Unknown,U.S. Forest Service,Unknown,Unknown,Unknown,Unknown,Unknown,Unknown,Unknown,Unknown,Unknown,Unknown,Unknown,Unknown,Unknown,Unknown,Unknown,"StandID 746080005. Five, 1/5-acre permanent plots are installed in each treatment unit. The control & 1:2 pruning treatments each have 1 fenced & 1 unfenced deer exclosure.",Unknown,Kellen Nelson,kellen.nelson@usda.gov,"Original boundaries from field traverses by RD staff. Bndrys updated using differentially corrected GPS data & digitizing from 1997 TNF DOQQs, 2006 Census Bureau orthos, & Google Earth"
"Sandy Point, Installation 23, Plot 1880",493,Unknown,Active,U.S. Forest Service,,,Cooperative Stand-Density Study (CSDS),55.55429,-132.537,Unknown,Unknown,N/A,Experimental Plot,No,No,No,Yes,No,No,Unknown,Unknown,U.S. Forest Service,Unknown,Unknown,Unknown,Unknown,Unknown,Unknown,Unknown,Unknown,Unknown,Unknown,Unknown,Unknown,Unknown,Unknown,Unknown,Location approximate.,Unknown,Kellen Nelson,kellen.nelson@usda.gov,Drawn from field maps onto TNF DOQQs
"Sandy Point, Installation 23, Plot 1870",492,Unknown,Active,U.S. Forest Service,,,Cooperative Stand-Density Study (CSDS),55.55475,-132.536,Unknown,Unknown,N/A,Experimental Plot,No,No,No,Yes,No,No,Unknown,Unknown,U.S. Forest Service,Unknown,Unknown,Unknown,Unknown,Unknown,Unknown,Unknown,Unknown,Unknown,Unknown,Unknown,Unknown,Unknown,Unknown,Unknown,Location approximate.,Unknown,Kellen Nelson,kellen.nelson@usda.gov,Drawn from field maps onto TNF DOQQs
"Sandy Point, Installation 23, Plot 1860",491,Unknown,Active,U.S. Forest Service,,,Cooperative Stand-Density Study (CSDS),55.555,-132.535,Unknown,Unknown,N/A,Experimental Plot,No,No,No,Yes,No,No,Unknown,Unknown,U.S. Forest Service,Unknown,Unknown,Unknown,Unknown,Unknown,Unknown,Unknown,Unknown,Unknown,Unknown,Unknown,Unknown,Unknown,Unknown,Unknown,Location approximate.,Unknown,Kellen Nelson,kellen.nelson@usda.gov,Drawn from field maps onto TNF DOQQs
"Sandy Point, Installation 23, Plot 1850",490,Unknown,Active,U.S. Forest Service,,,Cooperative Stand-Density Study (CSDS),55.55557,-132.535,Unknown,Unknown,N/A,Experimental Plot,No,No,No,Yes,No,No,Unknown,Unknown,U.S. Forest Service,Unknown,Unknown,Unknown,Unknown,Unknown,Unknown,Unknown,Unknown,Unknown,Unknown,Unknown,Unknown,Unknown,Unknown,Unknown,Location approximate.,Unknown,Kellen Nelson,kellen.nelson@usda.gov,Drawn from field maps onto TNF DOQQs
Klawock Airport,PAKW,Yes,Active,National Weather Service,Federal Aviation Administration,,The ASOS Monitoring Center (AOMC),55.5839,-133.067,49,:53,https://mesowest.utah.edu/cgi-bin/droman/meso_base_dyn.cgi?stn=PAKW&unit=0&time=LOCAL,Weather Station,Yes,Yes,No,No,No,No,Yes,Yes,National Weather Service,Yes,Yes,Yes,Yes,Yes,Unknown,Yes,Unknown,Yes,Unknown,Yes,Yes,Yes,Yes,Yes,No,https://www.weather.gov/wrh/timeseries?site=PAKW&hours=72,Aaron Jacobs,aaron.jacobs@noaa.gov,Unknown
"Karta Bay, Installation 107, Plot 3080",489,Unknown,Active,U.S. Forest Service,,,Taylor Even-Age Plot,55.5854,-132.519,Unknown,Unknown,N/A,Experimental Plot,No,No,No,Yes,No,No,Unknown,Unknown,U.S. Forest Service,Unknown,Unknown,Unknown,Unknown,Unknown,Unknown,Unknown,Unknown,Unknown,Unknown,Unknown,Unknown,Unknown,Unknown,Unknown,Location approximate.,Unknown,Kellen Nelson,kellen.nelson@usda.gov,Combination: drawn from field maps onto TNF DOQQs & used differentially corrected Trimble GPS pts.
"Karta Bay, Installation 107, Plot 3070",488,Unknown,Active,U.S. Forest Service,,,Taylor Even-Age Plot,55.58602,-132.519,Unknown,Unknown,N/A,Experimental Plot,No,No,No,Yes,No,No,Unknown,Unknown,U.S. Forest Service,Unknown,Unknown,Unknown,Unknown,Unknown,Unknown,Unknown,Unknown,Unknown,Unknown,Unknown,Unknown,Unknown,Unknown,Unknown,Location approximate.,Unknown,Kellen Nelson,kellen.nelson@usda.gov,Combination: drawn from field maps onto TNF DOQQs & used differentially corrected Trimble GPS pts.
Ship Island,SPXA2,Yes,Active,Marine Exchange of Alaska,,,Unknown,55.599,-132.203,Unknown,Unknown,Unknown,Weather Station,Unknown,Unknown,No,No,No,No,Unknown,Unknown,National Weather Service,Unknown,Unknown,Unknown,Unknown,Unknown,Unknown,Unknown,Unknown,Unknown,Unknown,Unknown,Unknown,Unknown,Unknown,Unknown,No,Unknown,Unknown,Unknown,Unknown
Upper Swan Lake,SWAA2,Unknown,Inactive,Natural Resources Conservation Service,United States Department of Agriculture,,Unknown,55.6,-131.2667,Unknown,Unknown,Unknown,Weather Station,Unknown,Unknown,No,No,No,No,Unknown,Unknown,National Weather Service,Unknown,Unknown,Unknown,Unknown,Unknown,Unknown,Unknown,Unknown,Unknown,Unknown,Unknown,Unknown,Unknown,Unknown,Unknown,No,Unknown,Unknown,Unknown,Unknown
Swan Lake,SLGA2,Yes,Active,Southeast Alaska Power Agency,,,Unknown,55.614809,-131.344786,330,Unknown,Unknown,Stream Gauge,Yes,No,No,No,No,No,Unknown,Unknown,National Weather Service,Unknown,Unknown,Unknown,Unknown,Unknown,Unknown,Unknown,Unknown,Unknown,Unknown,Yes,Unknown,Unknown,Unknown,Unknown,No,https://water.noaa.gov/gauges/slga2,Unknown,Unknown,Unknown
"Experiment 4 (<35 years), POW Rio Beaver, ",460,Unknown,Active,U.S. Forest Service,,,Tongass-Wide Young Growth Study (TWYGS),55.61945,-132.782,Unknown,Unknown,N/A,Experimental Plot,No,No,No,Yes,No,No,Unknown,Unknown,U.S. Forest Service,Unknown,Unknown,Unknown,Unknown,Unknown,Unknown,Unknown,Unknown,Unknown,Unknown,Unknown,Unknown,Unknown,Unknown,Unknown,"StandID 597240501. Four, 1/5-acre permanent plots each in the control, 23x23 PCT, & girdling treatments. Two plots in each slash treatment. No deer exclosures.",Unknown,Kellen Nelson,kellen.nelson@usda.gov,"Original boundaries from field traverses by RD staff. Bndrys updated using differentially corrected GPS data & digitizing from 1997 TNF DOQQs, 2006 Census Bureau orthos, & Google Earth"
Mint Creek Ridge,MINA2,No,Inactive,Unknown,,,Unknown,55.6333,-131.2167,Unknown,Unknown,Unknown,Stream Gauge,Yes,No,No,No,No,No,Unknown,Unknown,National Weather Service,Unknown,Unknown,Unknown,Unknown,Unknown,Unknown,Unknown,Unknown,Unknown,Unknown,Unknown,Unknown,Unknown,Unknown,Unknown,No,Unknown,Unknown,Unknown,Unknown
Lost Lake,LOSA2,No,Inactive,Natural Resources Conservation Service,United States Department of Agriculture,,Unknown,55.65,-131.2167,Unknown,Unknown,Unknown,Weather Station,Unknown,Unknown,No,No,No,No,Unknown,Unknown,National Weather Service,Unknown,Unknown,Unknown,Unknown,Unknown,Unknown,Unknown,Unknown,Unknown,Unknown,Unknown,Unknown,Unknown,Unknown,Unknown,No,Unknown,Unknown,Unknown,Unknown
"Experiment 1 (0-5 years), POW Lake Ellen, ",450,Unknown,Active,U.S. Forest Service,,,Tongass-Wide Young Growth Study (TWYGS),55.65686,-132.602,Unknown,Unknown,N/A,Experimental Plot,No,No,No,Yes,No,No,Unknown,Unknown,U.S. Forest Service,Unknown,Unknown,Unknown,Unknown,Unknown,Unknown,Unknown,Unknown,Unknown,Unknown,Unknown,Unknown,Unknown,Unknown,Unknown,StandID 598019501. Control and 80 TPA treatments have 1 fenced deer exclosure & 1 unfenced paired area. Number of 1/5-acre permanent plots still to be determined.,Unknown,Kellen Nelson,kellen.nelson@usda.gov,"Original boundaries from field traverses by RD staff. Bndrys updated using differentially corrected GPS data & digitizing from 1997 TNF DOQQs, 2006 Census Bureau orthos, & Google Earth"
"South Margaret Bay, 8075, ",487,Unknown,Active,U.S. Forest Service,,,Yellow Cedar Steckling,55.65868,-131.635,Unknown,Unknown,N/A,Experimental Plot,No,No,No,Yes,No,No,Unknown,Unknown,U.S. Forest Service,Unknown,Unknown,Unknown,Unknown,Unknown,Unknown,Unknown,Unknown,Unknown,Unknown,Unknown,Unknown,Unknown,Unknown,Unknown,No,Unknown,Kellen Nelson,kellen.nelson@usda.gov,Drawn from field maps onto TNF DOQQs
Helm Bay,KHKA2,No,Inactive,U.S. Forest Service,,,Remote Automated Weather Station,55.666667,-131.983333,Unknown,Unknown,Unknown,Weather Station,Unknown,Unknown,No,No,No,No,Unknown,Unknown,National Weather Service,Unknown,Unknown,Unknown,Unknown,Unknown,Unknown,Unknown,Unknown,Unknown,Unknown,Unknown,Unknown,Unknown,Unknown,Unknown,No,Unknown,Unknown,Unknown,Unknown
Lake Grace Pass,LASA2,No,Inactive,Natural Resources Conservation Service,United States Department of Agriculture,,Unknown,55.6667,-131.1,Unknown,Unknown,Unknown,Weather Station,Unknown,Unknown,No,No,No,No,Unknown,Unknown,National Weather Service,Unknown,Unknown,Unknown,Unknown,Unknown,Unknown,Unknown,Unknown,Unknown,Unknown,Unknown,Unknown,Unknown,Unknown,Unknown,No,Unknown,Unknown,Unknown,Unknown
"South Margaret Bay, 8077, ",485,Unknown,Active,U.S. Forest Service,,,Yellow Cedar Steckling,55.67218,-131.651,Unknown,Unknown,N/A,Experimental Plot,No,No,No,Yes,No,No,Unknown,Unknown,U.S. Forest Service,Unknown,Unknown,Unknown,Unknown,Unknown,Unknown,Unknown,Unknown,Unknown,Unknown,Unknown,Unknown,Unknown,Unknown,Unknown,No,Unknown,Kellen Nelson,kellen.nelson@usda.gov,Drawn from field maps onto TNF DOQQs
"Island in Thorne Bay, Installation 101, Plot 3010",486,Unknown,Active,U.S. Forest Service,,,Taylor Even-Age Plot,55.67269,-132.472,Unknown,Unknown,N/A,Experimental Plot,No,No,No,Yes,No,No,Unknown,Unknown,U.S. Forest Service,Unknown,Unknown,Unknown,Unknown,Unknown,Unknown,Unknown,Unknown,Unknown,Unknown,Unknown,Unknown,Unknown,Unknown,Unknown,"PDOP high, Location approximate.",Unknown,Kellen Nelson,kellen.nelson@usda.gov,Differentially corrected GPS point using Trimble ProXT and PFO. Collected 7/30/2015.
"Experiment 3 (25-35 years), Revilla Traitors Cove, ",509,Unknown,Active,U.S. Forest Service,,,Tongass-Wide Young Growth Study (TWYGS),55.67767,-131.64,Unknown,Unknown,N/A,Experimental Plot,No,No,No,Yes,No,No,Unknown,Unknown,U.S. Forest Service,Unknown,Unknown,Unknown,Unknown,Unknown,Unknown,Unknown,Unknown,Unknown,Unknown,Unknown,Unknown,Unknown,Unknown,Unknown,"StandID 738020001. Five, 1/5-acre permanent plots are installed in each treatment unit. The control & 1:2 pruning treatments each have 1 fenced & 1 unfenced deer exclosure.",Unknown,Kellen Nelson,kellen.nelson@usda.gov,"Original boundaries from field traverses by RD staff. Bndrys updated using differentially corrected GPS data & digitizing from 1997 TNF DOQQs, 2006 Census Bureau orthos, & Google Earth"
"Experiment 1 (0-5 years), POW Shaheen, ",550,Unknown,Active,U.S. Forest Service,,,Tongass-Wide Young Growth Study (TWYGS),55.6805,-133.198,Unknown,Unknown,N/A,Experimental Plot,No,No,No,Yes,No,No,Unknown,Unknown,U.S. Forest Service,Unknown,Unknown,Unknown,Unknown,Unknown,Unknown,Unknown,Unknown,Unknown,Unknown,Unknown,Unknown,Unknown,Unknown,Unknown,StandID 589040015. Control and 80 TPA treatments have 1 fenced deer exclosure & 1 unfenced paired area. Number of 1/5-acre permanent plots still to be determined.,Unknown,Kellen Nelson,kellen.nelson@usda.gov,"Original boundaries from field traverses by RD staff. Bndrys updated using differentially corrected GPS data & digitizing from 1997 TNF DOQQs, 2006 Census Bureau orthos, & Google Earth"
"Experiment 4 (<35 years), Revilla Margaret, ",567,Unknown,Active,U.S. Forest Service,,,Tongass-Wide Young Growth Study (TWYGS),55.68559,-131.567,Unknown,Unknown,N/A,Experimental Plot,No,No,No,Yes,No,No,Unknown,Unknown,U.S. Forest Service,Unknown,Unknown,Unknown,Unknown,Unknown,Unknown,Unknown,Unknown,Unknown,Unknown,Unknown,Unknown,Unknown,Unknown,Unknown,"StandID 738030001. Four, 1/5-acre permanent plots each in the control, 23x23 PCT, & girdling treatments. Two plots in each slash treatment. No deer exclosures.",Unknown,Kellen Nelson,kellen.nelson@usda.gov,"Original boundaries from field traverses by RD staff. Bndrys updated using differentially corrected GPS data & digitizing from 1997 TNF DOQQs, 2006 Census Bureau orthos, & Google Earth"
Thorne Bay Federal Aviation Administration,KTBWC,Yes,Active,Federal Aviation Administration,,,Unknown,55.68596,-132.5287,Unknown,Unknown,Unknown,Weather Station,Unknown,Yes,No,No,No,No,Unknown,Yes,National Weather Service,Unknown,Yes,Yes,Unknown,Unknown,Unknown,Unknown,Unknown,Unknown,Unknown,Unknown,Unknown,Unknown,Unknown,Unknown,No,Unknown,Unknown,Unknown,Unknown
"Experiment 2 (15-25 years), Revilla Traitors Creek, ",510,Unknown,Active,U.S. Forest Service,,,Tongass-Wide Young Growth Study (TWYGS),55.69523,-131.459,Unknown,Unknown,N/A,Experimental Plot,No,No,No,Yes,No,No,Unknown,Unknown,U.S. Forest Service,Unknown,Unknown,Unknown,Unknown,Unknown,Unknown,Unknown,Unknown,Unknown,Unknown,Unknown,Unknown,Unknown,Unknown,Unknown,"StandID 739040006. Five, 1/5-acre permanent plots in each treatment. Control & 18x18 PCT each have 1 fenced & 1 unfenced deer exclosure.",Unknown,Kellen Nelson,kellen.nelson@usda.gov,"Original boundaries from field traverses by RD staff. Bndrys updated using differentially corrected GPS data & digitizing from 1997 TNF DOQQs, 2006 Census Bureau orthos, & Google Earth"
Klawock Hwy at Control Lake,KCLA2,Yes,Active,Alaska Department of Transportation,,,Alaska Road Weather Information System,55.6957,-132.8779,450,Unknown,https://www.weather.gov/wrh/timeseries?site=KCLA2&hours=72,Weather Station,Yes,Yes,No,No,No,No,Yes,Yes,National Weather Service,Yes,Yes,Yes,Unknown,Unknown,Unknown,Unknown,Unknown,Yes,Unknown,Yes,Yes,Yes,Yes,Yes,No,Unknown,Unknown,Unknown,Unknown
"Experiment 1 (0-5 years), POW Thorne Bay, ",556,Unknown,Active,U.S. Forest Service,,,Tongass-Wide Young Growth Study (TWYGS),55.69733,-132.541,Unknown,Unknown,N/A,Experimental Plot,No,No,No,Yes,No,No,Unknown,Unknown,U.S. Forest Service,Unknown,Unknown,Unknown,Unknown,Unknown,Unknown,Unknown,Unknown,Unknown,Unknown,Unknown,Unknown,Unknown,Unknown,Unknown,StandID 586010006. Control and 80 TPA treatments have 1 fenced deer exclosure & 1 unfenced paired area. Number of 1/5-acre permanent plots still to be determined.,Unknown,Kellen Nelson,kellen.nelson@usda.gov,"Original boundaries from field traverses by RD staff. Bndrys updated using differentially corrected GPS data & digitizing from 1997 TNF DOQQs, 2006 Census Bureau orthos, & Google Earth"
Thorne Bay,484,Unknown,Active,U.S. Forest Service,,,Wet Soil Monitoring,55.70171,-132.623,Unknown,Unknown,N/A,Experimental Plot,No,No,No,Yes,No,No,Unknown,Unknown,U.S. Forest Service,Unknown,Unknown,Unknown,Unknown,Unknown,Unknown,Unknown,Unknown,Unknown,Unknown,Unknown,Unknown,Unknown,Unknown,Unknown,Boundary approximate.,Unknown,David D'Amore,david.v.damore@usda.gov,Drawn from field maps onto TNF DOQQs
Thorne River,PWTA2,Yes,Active,National Weather Service,,,IGage,55.70555556,-132.6277778,55,Unknown,Unknown,Weather Station,Unknown,Unknown,No,No,No,No,Unknown,Unknown,National Weather Service,Unknown,Unknown,Unknown,Unknown,Unknown,Unknown,Unknown,Unknown,Unknown,Unknown,Unknown,Unknown,Unknown,Unknown,Unknown,No,Unknown,Unknown,Unknown,Unknown
"Experiment 1 (0-5 years), POW Overview E, ",456,Unknown,Active,U.S. Forest Service,,,Tongass-Wide Young Growth Study (TWYGS),55.70683,-132.55,Unknown,Unknown,N/A,Experimental Plot,No,No,No,Yes,No,No,Unknown,Unknown,U.S. Forest Service,Unknown,Unknown,Unknown,Unknown,Unknown,Unknown,Unknown,Unknown,Unknown,Unknown,Unknown,Unknown,Unknown,Unknown,Unknown,StandID 586010076. Control and 80 TPA treatments have 1 fenced deer exclosure & 1 unfenced paired area. Number of 1/5-acre permanent plots still to be determined.,Unknown,Kellen Nelson,kellen.nelson@usda.gov,"Original boundaries from field traverses by RD staff. Bndrys updated using differentially corrected GPS data & digitizing from 1997 TNF DOQQs, 2006 Census Bureau orthos, & Google Earth"
"Gravelly Creek, Unit 1",483,Unknown,Inactive,U.S. Forest Service,,,Second Growth Management Project (SGMP),55.70686,-132.602,Unknown,Unknown,N/A,Experimental Plot,No,No,No,Yes,No,No,Unknown,Unknown,U.S. Forest Service,Unknown,Unknown,Unknown,Unknown,Unknown,Unknown,Unknown,Unknown,Unknown,Unknown,Unknown,Unknown,Unknown,Unknown,Unknown,Boundary approximate. Also contains 2 or 3 CSDS plots.,Unknown,Kellen Nelson,kellen.nelson@usda.gov,"Point updated based on original field maps, TNF 2006 DOQQs, and current (vintage 20teens) SGMP sampling protocols."
"Thorne River, Installation 24, Plot 1900",331,Unknown,Active,U.S. Forest Service,,,Cooperative Stand-Density Study (CSDS),55.70713,-132.602,Unknown,Unknown,N/A,Experimental Plot,No,No,No,Yes,No,No,Unknown,Unknown,U.S. Forest Service,Unknown,Unknown,Unknown,Unknown,Unknown,Unknown,Unknown,Unknown,Unknown,Unknown,Unknown,Unknown,Unknown,Unknown,Unknown,Location approximate.,Unknown,Kellen Nelson,kellen.nelson@usda.gov,Drawn from field maps onto TNF DOQQs
"Gravelly Creek, Unit 1, ",330,Unknown,Active,U.S. Forest Service,,,Second Growth Management Project (SGMP),55.70741,-132.604,Unknown,Unknown,N/A,Experimental Plot,No,No,No,Yes,No,No,Unknown,Unknown,U.S. Forest Service,Unknown,Unknown,Unknown,Unknown,Unknown,Unknown,Unknown,Unknown,Unknown,Unknown,Unknown,Unknown,Unknown,Unknown,Unknown,This plot can double as a CSDS control plot.,Unknown,Kellen Nelson,kellen.nelson@usda.gov,Drawn from field maps onto TNF DOQQs
"Thorne River, Installation 24, Plot 1890",329,Unknown,Active,U.S. Forest Service,,,Cooperative Stand-Density Study (CSDS),55.70799,-132.603,Unknown,Unknown,N/A,Experimental Plot,No,No,No,Yes,No,No,Unknown,Unknown,U.S. Forest Service,Unknown,Unknown,Unknown,Unknown,Unknown,Unknown,Unknown,Unknown,Unknown,Unknown,Unknown,Unknown,Unknown,Unknown,Unknown,Location approximate.,Unknown,Kellen Nelson,kellen.nelson@usda.gov,Drawn from field maps onto TNF DOQQs
"Thorne River, Installation 24, Plot 1910",328,Unknown,Active,U.S. Forest Service,,,Cooperative Stand-Density Study (CSDS),55.70892,-132.607,Unknown,Unknown,N/A,Experimental Plot,No,No,No,Yes,No,No,Unknown,Unknown,U.S. Forest Service,Unknown,Unknown,Unknown,Unknown,Unknown,Unknown,Unknown,Unknown,Unknown,Unknown,Unknown,Unknown,Unknown,Unknown,Unknown,Location approximate.,Unknown,Kellen Nelson,kellen.nelson@usda.gov,Drawn from field maps onto TNF DOQQs
"Salamander Lake, Installation 65, Plot 412",327,Unknown,Active,U.S. Forest Service,,,Pruning + PCT (Petruncio-JFSL),55.70899,-132.517,Unknown,Unknown,N/A,Experimental Plot,No,No,No,Yes,No,No,Unknown,Unknown,U.S. Forest Service,Unknown,Unknown,Unknown,Unknown,Unknown,Unknown,Unknown,Unknown,Unknown,Unknown,Unknown,Unknown,Unknown,Unknown,Unknown,PCT + pruned with 8' lift.,Unknown,Kellen Nelson,kellen.nelson@usda.gov,Differentially corrected GPS point using Trimble ProXT and PFO. Collected 7/9/2012.
"Salamander Lake, Installation 65, Plot 413",326,Unknown,Active,U.S. Forest Service,,,Pruning + PCT (Petruncio-JFSL),55.70916,-132.517,Unknown,Unknown,N/A,Experimental Plot,No,No,No,Yes,No,No,Unknown,Unknown,U.S. Forest Service,Unknown,Unknown,Unknown,Unknown,Unknown,Unknown,Unknown,Unknown,Unknown,Unknown,Unknown,Unknown,Unknown,Unknown,Unknown,PCT + pruned with 17' lift.,Unknown,Kellen Nelson,kellen.nelson@usda.gov,Differentially corrected GPS point using Trimble ProXT and PFO. Collected 7/9/2012.
"Salamander Lake, Installation 65, Plot 414",325,Unknown,Active,U.S. Forest Service,,,Pruning + PCT (Petruncio-JFSL),55.70943,-132.516,Unknown,Unknown,N/A,Experimental Plot,No,No,No,Yes,No,No,Unknown,Unknown,U.S. Forest Service,Unknown,Unknown,Unknown,Unknown,Unknown,Unknown,Unknown,Unknown,Unknown,Unknown,Unknown,Unknown,Unknown,Unknown,Unknown,"PCT + pruned with 12' lift. PDOP high, location approximate.",Unknown,Kellen Nelson,kellen.nelson@usda.gov,Differentially corrected GPS point using Trimble ProXT and PFO. Collected 7/9/2012.
"Salamander Lake, Installation 65, Plot 415",324,Unknown,Active,U.S. Forest Service,,,Pruning + PCT (Petruncio-JFSL),55.70978,-132.516,Unknown,Unknown,N/A,Experimental Plot,No,No,No,Yes,No,No,Unknown,Unknown,U.S. Forest Service,Unknown,Unknown,Unknown,Unknown,Unknown,Unknown,Unknown,Unknown,Unknown,Unknown,Unknown,Unknown,Unknown,Unknown,Unknown,control unit,Unknown,Kellen Nelson,kellen.nelson@usda.gov,Differentially corrected GPS point using Trimble ProXT and PFO. Collected 7/9/2012.
"Experiment 1 (0-5 years), POW Overview W, ",457,Unknown,Active,U.S. Forest Service,,,Tongass-Wide Young Growth Study (TWYGS),55.71134,-132.568,Unknown,Unknown,N/A,Experimental Plot,No,No,No,Yes,No,No,Unknown,Unknown,U.S. Forest Service,Unknown,Unknown,Unknown,Unknown,Unknown,Unknown,Unknown,Unknown,Unknown,Unknown,Unknown,Unknown,Unknown,Unknown,Unknown,StandID 586010075. Control and 80 TPA treatments have 1 fenced deer exclosure & 1 unfenced paired area. Number of 1/5-acre permanent plots still to be determined.,Unknown,Kellen Nelson,kellen.nelson@usda.gov,"Original boundaries from field traverses by RD staff. Bndrys updated using differentially corrected GPS data & digitizing from 1997 TNF DOQQs, 2006 Census Bureau orthos, & Google Earth"
"Virgin Bay, Installation 108, Plot 3320",323,Unknown,Active,U.S. Forest Service,,,Taylor Even-Age Plot,55.71585,-131.688,Unknown,Unknown,N/A,Experimental Plot,No,No,No,Yes,No,No,Unknown,Unknown,U.S. Forest Service,Unknown,Unknown,Unknown,Unknown,Unknown,Unknown,Unknown,Unknown,Unknown,Unknown,Unknown,Unknown,Unknown,Unknown,Unknown,"PDOP high, Location approximate.",Unknown,Kellen Nelson,kellen.nelson@usda.gov,Differentially corrected GPS point using Trimble ProXT and PFO. Collected 7/8/2015.
"Virgin Bay, Installation 108, Plot 3330",322,Unknown,Active,U.S. Forest Service,,,Taylor Even-Age Plot,55.71676,-131.687,Unknown,Unknown,N/A,Experimental Plot,No,No,No,Yes,No,No,Unknown,Unknown,U.S. Forest Service,Unknown,Unknown,Unknown,Unknown,Unknown,Unknown,Unknown,Unknown,Unknown,Unknown,Unknown,Unknown,Unknown,Unknown,Unknown,No,Unknown,Kellen Nelson,kellen.nelson@usda.gov,Differentially corrected GPS point using Trimble ProXT and PFO. Collected 7/9/2015.
"Virgin Bay, Installation 108, Plot 3340",321,Unknown,Active,U.S. Forest Service,,,Taylor Even-Age Plot,55.71715,-131.686,Unknown,Unknown,N/A,Experimental Plot,No,No,No,Yes,No,No,Unknown,Unknown,U.S. Forest Service,Unknown,Unknown,Unknown,Unknown,Unknown,Unknown,Unknown,Unknown,Unknown,Unknown,Unknown,Unknown,Unknown,Unknown,Unknown,"PDOP high, Location approximate.",Unknown,Kellen Nelson,kellen.nelson@usda.gov,Differentially corrected GPS point using Trimble ProXT and PFO. Collected 7/11/2015.
"Virgin Bay, Installation 10, Plot 134",320,Unknown,Active,U.S. Forest Service,,,Cooperative Stand-Density Study (CSDS),55.71924,-131.692,Unknown,Unknown,N/A,Experimental Plot,No,No,No,Yes,No,No,Unknown,Unknown,U.S. Forest Service,Unknown,Unknown,Unknown,Unknown,Unknown,Unknown,Unknown,Unknown,Unknown,Unknown,Unknown,Unknown,Unknown,Unknown,Unknown,No,Unknown,Kellen Nelson,kellen.nelson@usda.gov,Drawn from field maps onto TNF DOQQs
"Virgin Bay, Installation 10, Plot 135",319,Unknown,Active,U.S. Forest Service,,,Cooperative Stand-Density Study (CSDS),55.71952,-131.693,Unknown,Unknown,N/A,Experimental Plot,No,No,No,Yes,No,No,Unknown,Unknown,U.S. Forest Service,Unknown,Unknown,Unknown,Unknown,Unknown,Unknown,Unknown,Unknown,Unknown,Unknown,Unknown,Unknown,Unknown,Unknown,Unknown,No,Unknown,Kellen Nelson,kellen.nelson@usda.gov,Drawn from field maps onto TNF DOQQs
"Virgin Bay, Installation 10, Plot 136",318,Unknown,Active,U.S. Forest Service,,,Cooperative Stand-Density Study (CSDS),55.72003,-131.692,Unknown,Unknown,N/A,Experimental Plot,No,No,No,Yes,No,No,Unknown,Unknown,U.S. Forest Service,Unknown,Unknown,Unknown,Unknown,Unknown,Unknown,Unknown,Unknown,Unknown,Unknown,Unknown,Unknown,Unknown,Unknown,Unknown,No,Unknown,Kellen Nelson,kellen.nelson@usda.gov,Drawn from field maps onto TNF DOQQs
"Virgin Bay, Installation 10, Plot 137",317,Unknown,Active,U.S. Forest Service,,,Cooperative Stand-Density Study (CSDS),55.72031,-131.693,Unknown,Unknown,N/A,Experimental Plot,No,No,No,Yes,No,No,Unknown,Unknown,U.S. Forest Service,Unknown,Unknown,Unknown,Unknown,Unknown,Unknown,Unknown,Unknown,Unknown,Unknown,Unknown,Unknown,Unknown,Unknown,Unknown,No,Unknown,Kellen Nelson,kellen.nelson@usda.gov,Drawn from field maps onto TNF DOQQs
"Experiment 4 (<35 years), POW Deer Creek, ",447,Unknown,Active,U.S. Forest Service,,,Tongass-Wide Young Growth Study (TWYGS),55.72329,-132.537,Unknown,Unknown,N/A,Experimental Plot,No,No,No,Yes,No,No,Unknown,Unknown,U.S. Forest Service,Unknown,Unknown,Unknown,Unknown,Unknown,Unknown,Unknown,Unknown,Unknown,Unknown,Unknown,Unknown,Unknown,Unknown,Unknown,"StandID 586010509. Four, 1/5-acre permanent plots each in the control, 23x23 PCT, & girdling treatments. Two plots in each slash treatment. No deer exclosures.",Unknown,Kellen Nelson,kellen.nelson@usda.gov,"Original boundaries from field traverses by RD staff. Bndrys updated using differentially corrected GPS data & digitizing from 1997 TNF DOQQs, 2006 Census Bureau orthos, & Google Earth"
"Experiment 4 (<35 years), POW Staney S, ",553,Unknown,Active,U.S. Forest Service,,,Tongass-Wide Young Growth Study (TWYGS),55.72632,-133.05,Unknown,Unknown,N/A,Experimental Plot,No,No,No,Yes,No,No,Unknown,Unknown,U.S. Forest Service,Unknown,Unknown,Unknown,Unknown,Unknown,Unknown,Unknown,Unknown,Unknown,Unknown,Unknown,Unknown,Unknown,Unknown,Unknown,"StandID 590010505. Four, 1/5-acre permanent plots each in the control, 23x23 PCT, & girdling treatments. Two plots in each slash treatment. No deer exclosures.",Unknown,Kellen Nelson,kellen.nelson@usda.gov,"Original boundaries from field traverses by RD staff. Bndrys updated using differentially corrected GPS data & digitizing from 1997 TNF DOQQs, 2006 Census Bureau orthos, & Google Earth"
Thorne Bay,THOA2,Yes,Active,U.S. Forest Service,,,Remote Automated Weather Station,55.7417,-132.7542,505,:54,https://mesowest.utah.edu/cgi-bin/droman/meso_base_dyn.cgi?stn=THOA2&unit=0&time=LOCAL,Weather Station,Yes,Yes,No,No,No,No,Yes,Yes,National Weather Service,Yes,Yes,Unknown,Unknown,Yes,Unknown,Unknown,Unknown,No,Unknown,Yes,Yes,Yes,Yes,Yes,"2.0m Temperature F, 2.0m Dew Point  F, 2.0m Wet bulb temperature  F, 2.0m Relative Humidity %, 6.1m Wind Speed mph, 6.1m Wind Gust mph, 6.1m Wind Direction, Solar Radiation W/m*m, Precipitation accumulated in",https://www.weather.gov/wrh/timeseries?site=THOA2&hours=72,Unknown,Unknown,Unknown
"Experiment 4 (<35 years), POW Slide Creek, ",551,Unknown,Active,U.S. Forest Service,,,Tongass-Wide Young Growth Study (TWYGS),55.75336,-132.548,Unknown,Unknown,N/A,Experimental Plot,No,No,No,Yes,No,No,Unknown,Unknown,U.S. Forest Service,Unknown,Unknown,Unknown,Unknown,Unknown,Unknown,Unknown,Unknown,Unknown,Unknown,Unknown,Unknown,Unknown,Unknown,Unknown,"StandID 585010501. Four, 1/5-acre permanent plots each in the control, 23x23 PCT, & girdling treatments. Two plots in each slash treatment. No deer exclosures.",Unknown,Kellen Nelson,kellen.nelson@usda.gov,"Original boundaries from field traverses by RD staff. Bndrys updated using differentially corrected GPS data & digitizing from 1997 TNF DOQQs, 2006 Census Bureau orthos, & Google Earth"
"Experiment 2 (15-25 years), Revilla Burn, ",560,Unknown,Active,U.S. Forest Service,,,Tongass-Wide Young Growth Study (TWYGS),55.75558,-131.674,Unknown,Unknown,N/A,Experimental Plot,No,No,No,Yes,No,No,Unknown,Unknown,U.S. Forest Service,Unknown,Unknown,Unknown,Unknown,Unknown,Unknown,Unknown,Unknown,Unknown,Unknown,Unknown,Unknown,Unknown,Unknown,Unknown,"StandID 736030007. Five, 1/5-acre permanent plots are installed in each treatment unit. The control & 1:2 pruning treatments each have 1 fenced & 1 unfenced deer exclosure.",Unknown,Kellen Nelson,kellen.nelson@usda.gov,"Original boundaries from field traverses by RD staff. Bndrys updated using differentially corrected GPS data & digitizing from 1997 TNF DOQQs, 2006 Census Bureau orthos, & Google Earth"
"Staney, Tye, ",100,Unknown,Active,U.S. Forest Service,,,Watershed Restoration & Ecosystem Monitoring (WREM),55.76518,-133.043,Unknown,Unknown,N/A,Experimental Plot,No,No,No,Yes,No,No,Unknown,Unknown,U.S. Forest Service,Unknown,Unknown,Unknown,Unknown,Unknown,Unknown,Unknown,Unknown,Unknown,Unknown,Unknown,Unknown,Unknown,Unknown,Unknown,"Site contains six, 40m x 5m silviculture strip plots plus 6 litter and insect traps. Alternate contact is Di Johnson, 586-8819 or David D'Amore, 586-7955.",Unknown,Rick Edwards,richard.t.edwards@usda.gov,Silviculture plot corner coord taken with Trimble ProXT & differentially corrected. Garmin GPS used for litter/insect traps. 100 ft buffer added around site.
"Warmchuck Inlet, Installation 9, Plot 130",316,Unknown,Active,U.S. Forest Service,,,Cooperative Stand-Density Study (CSDS),55.77059,-133.494,Unknown,Unknown,N/A,Experimental Plot,No,No,No,Yes,No,No,Unknown,Unknown,U.S. Forest Service,Unknown,Unknown,Unknown,Unknown,Unknown,Unknown,Unknown,Unknown,Unknown,Unknown,Unknown,Unknown,Unknown,Unknown,Unknown,No,Unknown,Kellen Nelson,kellen.nelson@usda.gov,Drawn from field maps onto TNF DOQQs
"Warmchuck Inlet, Installation 9, Plot 132",315,Unknown,Active,U.S. Forest Service,,,Cooperative Stand-Density Study (CSDS),55.77061,-133.493,Unknown,Unknown,N/A,Experimental Plot,No,No,No,Yes,No,No,Unknown,Unknown,U.S. Forest Service,Unknown,Unknown,Unknown,Unknown,Unknown,Unknown,Unknown,Unknown,Unknown,Unknown,Unknown,Unknown,Unknown,Unknown,Unknown,No,Unknown,Kellen Nelson,kellen.nelson@usda.gov,Drawn from field maps onto TNF DOQQs
"Warmchuck Inlet, Installation 9, Plot 131",314,Unknown,Active,U.S. Forest Service,,,Cooperative Stand-Density Study (CSDS),55.77101,-133.494,Unknown,Unknown,N/A,Experimental Plot,No,No,No,Yes,No,No,Unknown,Unknown,U.S. Forest Service,Unknown,Unknown,Unknown,Unknown,Unknown,Unknown,Unknown,Unknown,Unknown,Unknown,Unknown,Unknown,Unknown,Unknown,Unknown,No,Unknown,Kellen Nelson,kellen.nelson@usda.gov,Drawn from field maps onto TNF DOQQs
"Warmchuck Inlet, Installation 9, Plot 133",313,Unknown,Active,U.S. Forest Service,,,Cooperative Stand-Density Study (CSDS),55.77103,-133.492,Unknown,Unknown,N/A,Experimental Plot,No,No,No,Yes,No,No,Unknown,Unknown,U.S. Forest Service,Unknown,Unknown,Unknown,Unknown,Unknown,Unknown,Unknown,Unknown,Unknown,Unknown,Unknown,Unknown,Unknown,Unknown,Unknown,No,Unknown,Kellen Nelson,kellen.nelson@usda.gov,Drawn from field maps onto TNF DOQQs
"Staney, Calvin, ",99,Unknown,Active,U.S. Forest Service,,,Watershed Restoration & Ecosystem Monitoring (WREM),55.7723,-133.064,Unknown,Unknown,N/A,Experimental Plot,No,No,No,Yes,No,No,Unknown,Unknown,U.S. Forest Service,Unknown,Unknown,Unknown,Unknown,Unknown,Unknown,Unknown,Unknown,Unknown,Unknown,Unknown,Unknown,Unknown,Unknown,Unknown,"Site contains twelve, 40m x 5m silviculture strip plots plus 6 litter and insect traps. Alternate contact is Di Johnson, 586-8819 or David D'Amore, 586-7955.",Unknown,Rick Edwards,richard.t.edwards@usda.gov,Silviculture plot corner coord taken with Trimble ProXT & differentially corrected. Garmin GPS used for litter/insect traps. 100 ft buffer added around site.
"Warmchuck, , ",312,Unknown,Inactive,U.S. Forest Service,,,Heceta Commercial Thinning,55.77418,-133.492,Unknown,Unknown,N/A,Experimental Plot,No,No,No,Yes,No,No,Unknown,Unknown,U.S. Forest Service,Unknown,Unknown,Unknown,Unknown,Unknown,Unknown,Unknown,Unknown,Unknown,Unknown,Unknown,Unknown,Unknown,Unknown,Unknown,Site contains 8 units with different thinning treatments. Co-op with TNF. Study was suspended in 2006. May be revised and activated in future.,Unknown,Kellen Nelson,kellen.nelson@usda.gov,Received shapefile from Craig RD. Originally built in ArcGIS from DXF files of the field traverses.
"Staney, Hydra, ",97,Unknown,Active,U.S. Forest Service,,,Watershed Restoration & Ecosystem Monitoring (WREM),55.77908,-133.065,Unknown,Unknown,N/A,Experimental Plot,No,No,No,Yes,No,No,Unknown,Unknown,U.S. Forest Service,Unknown,Unknown,Unknown,Unknown,Unknown,Unknown,Unknown,Unknown,Unknown,Unknown,Unknown,Unknown,Unknown,Unknown,Unknown,"Site contains six, 40m x 5m silviculture strip plots plus 6 litter and insect traps. Alternate contact is Di Johnson, 586-8819 or David D'Amore, 586-7955.",Unknown,Rick Edwards,richard.t.edwards@usda.gov,Silviculture plot corner coord taken with Trimble ProXT & differentially corrected. Garmin GPS used for litter/insect traps. 100 ft buffer added around site.
"Crooked Hook, , ",308,Unknown,Inactive,U.S. Forest Service,,,Heceta Commercial Thinning,55.78184,-133.424,Unknown,Unknown,N/A,Experimental Plot,No,No,No,Yes,No,No,Unknown,Unknown,U.S. Forest Service,Unknown,Unknown,Unknown,Unknown,Unknown,Unknown,Unknown,Unknown,Unknown,Unknown,Unknown,Unknown,Unknown,Unknown,Unknown,Site contains 8 units with different thinning treatments. Co-op with TNF. Study was suspended in 2006. May be revised and activated in future.,Unknown,Kellen Nelson,kellen.nelson@usda.gov,Received shapefile from Craig RD. Originally built in ArcGIS from DXF files of the field traverses.
"N.E. Heceta, Installation 11, Plot 1380",311,Unknown,Active,U.S. Forest Service,,,Cooperative Stand-Density Study (CSDS),55.78411,-133.429,Unknown,Unknown,N/A,Experimental Plot,No,No,No,Yes,No,No,Unknown,Unknown,U.S. Forest Service,Unknown,Unknown,Unknown,Unknown,Unknown,Unknown,Unknown,Unknown,Unknown,Unknown,Unknown,Unknown,Unknown,Unknown,Unknown,No,Unknown,Kellen Nelson,kellen.nelson@usda.gov,"Combination: drawn from field maps onto TNF DOQQs, & used differentially corrected Trimble GPS pts"
"N.E. Heceta, Installation 11, Plot 1390",310,Unknown,Active,U.S. Forest Service,,,Cooperative Stand-Density Study (CSDS),55.78442,-133.428,Unknown,Unknown,N/A,Experimental Plot,No,No,No,Yes,No,No,Unknown,Unknown,U.S. Forest Service,Unknown,Unknown,Unknown,Unknown,Unknown,Unknown,Unknown,Unknown,Unknown,Unknown,Unknown,Unknown,Unknown,Unknown,Unknown,No,Unknown,Kellen Nelson,kellen.nelson@usda.gov,"Combination: drawn from field maps onto TNF DOQQs, & used differentially corrected Trimble GPS pts"
"N.E. Heceta, Installation 11, Plot 1400",309,Unknown,Active,U.S. Forest Service,,,Cooperative Stand-Density Study (CSDS),55.78472,-133.427,Unknown,Unknown,N/A,Experimental Plot,No,No,No,Yes,No,No,Unknown,Unknown,U.S. Forest Service,Unknown,Unknown,Unknown,Unknown,Unknown,Unknown,Unknown,Unknown,Unknown,Unknown,Unknown,Unknown,Unknown,Unknown,Unknown,No,Unknown,Kellen Nelson,kellen.nelson@usda.gov,"Combination: drawn from field maps onto TNF DOQQs, & used differentially corrected Trimble GPS pts"
"Shaheen, Unit 1, ",307,Unknown,Inactive,U.S. Forest Service,,,Second Growth Management Project (SGMP),55.78607,-133.209,Unknown,Unknown,N/A,Experimental Plot,No,No,No,Yes,No,No,Unknown,Unknown,U.S. Forest Service,Unknown,Unknown,Unknown,Unknown,Unknown,Unknown,Unknown,Unknown,Unknown,Unknown,Unknown,Unknown,Unknown,Unknown,Unknown,Contains 2 CSDS plots.,Unknown,Kellen Nelson,kellen.nelson@usda.gov,Drawn from field maps onto TNF DOQQs
"Shaheen, Unit 1, ",306,Unknown,Inactive,U.S. Forest Service,,,Second Growth Management Project (SGMP),55.7863,-133.21,Unknown,Unknown,N/A,Experimental Plot,No,No,No,Yes,No,No,Unknown,Unknown,U.S. Forest Service,Unknown,Unknown,Unknown,Unknown,Unknown,Unknown,Unknown,Unknown,Unknown,Unknown,Unknown,Unknown,Unknown,Unknown,Unknown,Contains 2 CSDS plots.,Unknown,Kellen Nelson,kellen.nelson@usda.gov,Drawn from field maps onto TNF DOQQs
"Shaheen, Unit 1, ",305,Unknown,Inactive,U.S. Forest Service,,,Second Growth Management Project (SGMP),55.7864,-133.209,Unknown,Unknown,N/A,Experimental Plot,No,No,No,Yes,No,No,Unknown,Unknown,U.S. Forest Service,Unknown,Unknown,Unknown,Unknown,Unknown,Unknown,Unknown,Unknown,Unknown,Unknown,Unknown,Unknown,Unknown,Unknown,Unknown,Contains 2 CSDS plots.,Unknown,Kellen Nelson,kellen.nelson@usda.gov,Drawn from field maps onto TNF DOQQs
"Experiment 3 (25-35 years), POW Thorne River, ",557,Unknown,Active,U.S. Forest Service,,,Tongass-Wide Young Growth Study (TWYGS),55.79101,-132.676,Unknown,Unknown,N/A,Experimental Plot,No,No,No,Yes,No,No,Unknown,Unknown,U.S. Forest Service,Unknown,Unknown,Unknown,Unknown,Unknown,Unknown,Unknown,Unknown,Unknown,Unknown,Unknown,Unknown,Unknown,Unknown,Unknown,"StandID 580020512. Five, 1/5-acre permanent plots are installed in each treatment unit. The control & 1:2 pruning treatments each have 1 fenced & 1 unfenced deer exclosure.",Unknown,Kellen Nelson,kellen.nelson@usda.gov,"Original boundaries from field traverses by RD staff. Bndrys updated using differentially corrected GPS data & digitizing from 1997 TNF DOQQs, 2006 Census Bureau orthos, & Google Earth"
"Shaheen, Unit 2, ",304,Unknown,Inactive,U.S. Forest Service,,,Second Growth Management Project (SGMP),55.79102,-133.205,Unknown,Unknown,N/A,Experimental Plot,No,No,No,Yes,No,No,Unknown,Unknown,U.S. Forest Service,Unknown,Unknown,Unknown,Unknown,Unknown,Unknown,Unknown,Unknown,Unknown,Unknown,Unknown,Unknown,Unknown,Unknown,Unknown,Border approximate.,Unknown,Kellen Nelson,kellen.nelson@usda.gov,Drawn from field maps onto TNF DOQQs
"Shaheen, Unit 3, ",298,Unknown,Inactive,U.S. Forest Service,,,Second Growth Management Project (SGMP),55.79217,-133.192,Unknown,Unknown,N/A,Experimental Plot,No,No,No,Yes,No,No,Unknown,Unknown,U.S. Forest Service,Unknown,Unknown,Unknown,Unknown,Unknown,Unknown,Unknown,Unknown,Unknown,Unknown,Unknown,Unknown,Unknown,Unknown,Unknown,Border approximate. Contains 2 CSDS plots.,Unknown,Kellen Nelson,kellen.nelson@usda.gov,Drawn from field maps onto TNF DOQQs
"Tuxekan Island, Installation 7, Plot 122",303,Unknown,Active,U.S. Forest Service,,,Cooperative Stand-Density Study (CSDS),55.79218,-133.286,Unknown,Unknown,N/A,Experimental Plot,No,No,No,Yes,No,No,Unknown,Unknown,U.S. Forest Service,Unknown,Unknown,Unknown,Unknown,Unknown,Unknown,Unknown,Unknown,Unknown,Unknown,Unknown,Unknown,Unknown,Unknown,Unknown,No,Unknown,Kellen Nelson,kellen.nelson@usda.gov,Combination: drawn from field maps onto TNF DOQQs & used differentially corrected Trimble GPS pts.
"Shaheen, Unit 3, ",302,Unknown,Inactive,U.S. Forest Service,,,Second Growth Management Project (SGMP),55.79232,-133.192,Unknown,Unknown,N/A,Experimental Plot,No,No,No,Yes,No,No,Unknown,Unknown,U.S. Forest Service,Unknown,Unknown,Unknown,Unknown,Unknown,Unknown,Unknown,Unknown,Unknown,Unknown,Unknown,Unknown,Unknown,Unknown,Unknown,Border approximate. Contains 2 CSDS plots.,Unknown,Kellen Nelson,kellen.nelson@usda.gov,Drawn from field maps onto TNF DOQQs
"Shaheen, Unit 3, ",300,Unknown,Inactive,U.S. Forest Service,,,Second Growth Management Project (SGMP),55.79263,-133.191,Unknown,Unknown,N/A,Experimental Plot,No,No,No,Yes,No,No,Unknown,Unknown,U.S. Forest Service,Unknown,Unknown,Unknown,Unknown,Unknown,Unknown,Unknown,Unknown,Unknown,Unknown,Unknown,Unknown,Unknown,Unknown,Unknown,Border approximate. Contains 2 CSDS plots.,Unknown,Kellen Nelson,kellen.nelson@usda.gov,Drawn from field maps onto TNF DOQQs
"Tuxekan Island, Installation 7, Plot 123",301,Unknown,Active,U.S. Forest Service,,,Cooperative Stand-Density Study (CSDS),55.79274,-133.286,Unknown,Unknown,N/A,Experimental Plot,No,No,No,Yes,No,No,Unknown,Unknown,U.S. Forest Service,Unknown,Unknown,Unknown,Unknown,Unknown,Unknown,Unknown,Unknown,Unknown,Unknown,Unknown,Unknown,Unknown,Unknown,Unknown,No,Unknown,Kellen Nelson,kellen.nelson@usda.gov,Combination: drawn from field maps onto TNF DOQQs & used differentially corrected Trimble GPS pts.
"Tuxekan Island, Installation 7, Plot 124",299,Unknown,Active,U.S. Forest Service,,,Cooperative Stand-Density Study (CSDS),55.79334,-133.285,Unknown,Unknown,N/A,Experimental Plot,No,No,No,Yes,No,No,Unknown,Unknown,U.S. Forest Service,Unknown,Unknown,Unknown,Unknown,Unknown,Unknown,Unknown,Unknown,Unknown,Unknown,Unknown,Unknown,Unknown,Unknown,Unknown,No,Unknown,Kellen Nelson,kellen.nelson@usda.gov,Combination: drawn from field maps onto TNF DOQQs & used differentially corrected Trimble GPS pts.
"Experiment 1 (0-5 years), Revilla Old, ",570,Unknown,Active,U.S. Forest Service,,,Tongass-Wide Young Growth Study (TWYGS),55.79377,-131.624,Unknown,Unknown,N/A,Experimental Plot,No,No,No,Yes,No,No,Unknown,Unknown,U.S. Forest Service,Unknown,Unknown,Unknown,Unknown,Unknown,Unknown,Unknown,Unknown,Unknown,Unknown,Unknown,Unknown,Unknown,Unknown,Unknown,StandID 736010048. Control and 80 TPA treatments have 1 fenced deer exclosure & 1 unfenced paired area. Number of 1/5-acre permanent plots still to be determined.,Unknown,Kellen Nelson,kellen.nelson@usda.gov,Point represents center of unit polygon.
"Experiment 3 (25-35 years), Revilla Same, ",507,Unknown,Active,U.S. Forest Service,,,Tongass-Wide Young Growth Study (TWYGS),55.79444,-131.593,Unknown,Unknown,N/A,Experimental Plot,No,No,No,Yes,No,No,Unknown,Unknown,U.S. Forest Service,Unknown,Unknown,Unknown,Unknown,Unknown,Unknown,Unknown,Unknown,Unknown,Unknown,Unknown,Unknown,Unknown,Unknown,Unknown,"StandID 736010003. Five, 1/5-acre permanent plots are installed in each treatment unit. The control & 1:2 pruning treatments each have 1 fenced & 1 unfenced deer exclosure.",Unknown,Kellen Nelson,kellen.nelson@usda.gov,"Original boundaries from field traverses by RD staff. Bndrys updated using differentially corrected GPS data & digitizing from 1997 TNF DOQQs, 2006 Census Bureau orthos, & Google Earth"
"Experiment 3 (25-35 years), POW Staney N, ",552,Unknown,Active,U.S. Forest Service,,,Tongass-Wide Young Growth Study (TWYGS),55.7968,-133.136,Unknown,Unknown,N/A,Experimental Plot,No,No,No,Yes,No,No,Unknown,Unknown,U.S. Forest Service,Unknown,Unknown,Unknown,Unknown,Unknown,Unknown,Unknown,Unknown,Unknown,Unknown,Unknown,Unknown,Unknown,Unknown,Unknown,"StandID 588020502. Five, 1/5-acre permanent plots are installed in each treatment unit. The control & 1:2 pruning treatments each have 1 fenced & 1 unfenced deer exclosure.",Unknown,Kellen Nelson,kellen.nelson@usda.gov,"Original boundaries from field traverses by RD staff. Bndrys updated using differentially corrected GPS data & digitizing from 1997 TNF DOQQs, 2006 Census Bureau orthos, & Google Earth"
"Tuxekan Island II, Installation 13, Plot 145",250,Unknown,Active,U.S. Forest Service,,,Cooperative Stand-Density Study (CSDS),55.79685,-133.279,Unknown,Unknown,N/A,Experimental Plot,No,No,No,Yes,No,No,Unknown,Unknown,U.S. Forest Service,Unknown,Unknown,Unknown,Unknown,Unknown,Unknown,Unknown,Unknown,Unknown,Unknown,Unknown,Unknown,Unknown,Unknown,Unknown,No,Unknown,Kellen Nelson,kellen.nelson@usda.gov,Drawn from field maps onto TNF DOQQs
"Tuxekan Island II, Installation 13, Plot 146",297,Unknown,Active,U.S. Forest Service,,,Cooperative Stand-Density Study (CSDS),55.79698,-133.278,Unknown,Unknown,N/A,Experimental Plot,No,No,No,Yes,No,No,Unknown,Unknown,U.S. Forest Service,Unknown,Unknown,Unknown,Unknown,Unknown,Unknown,Unknown,Unknown,Unknown,Unknown,Unknown,Unknown,Unknown,Unknown,Unknown,No,Unknown,Kellen Nelson,kellen.nelson@usda.gov,Drawn from field maps onto TNF DOQQs
"Tuxekan Island II, Installation 13, Plot 147",296,Unknown,Active,U.S. Forest Service,,,Cooperative Stand-Density Study (CSDS),55.79711,-133.277,Unknown,Unknown,N/A,Experimental Plot,No,No,No,Yes,No,No,Unknown,Unknown,U.S. Forest Service,Unknown,Unknown,Unknown,Unknown,Unknown,Unknown,Unknown,Unknown,Unknown,Unknown,Unknown,Unknown,Unknown,Unknown,Unknown,No,Unknown,Kellen Nelson,kellen.nelson@usda.gov,Drawn from field maps onto TNF DOQQs
"Staney, Orpheus, ",98,Unknown,Active,U.S. Forest Service,,,Watershed Restoration & Ecosystem Monitoring (WREM),55.79743,-133.1,Unknown,Unknown,N/A,Experimental Plot,No,No,No,Yes,No,No,Unknown,Unknown,U.S. Forest Service,Unknown,Unknown,Unknown,Unknown,Unknown,Unknown,Unknown,Unknown,Unknown,Unknown,Unknown,Unknown,Unknown,Unknown,Unknown,"Site contains six, 40m x 5m silviculture strip plots plus 6 litter and insect traps. Alternate contact is Di Johnson, 586-8819 or David D'Amore, 586-7955.",Unknown,Rick Edwards,richard.t.edwards@usda.gov,Silviculture plot corner coord taken with Trimble ProXT & differentially corrected. Garmin GPS used for litter/insect traps. 100 ft buffer added around site.
"Tuxekan Island II, Installation 13, Plot 148",295,Unknown,Active,U.S. Forest Service,,,Cooperative Stand-Density Study (CSDS),55.79754,-133.278,Unknown,Unknown,N/A,Experimental Plot,No,No,No,Yes,No,No,Unknown,Unknown,U.S. Forest Service,Unknown,Unknown,Unknown,Unknown,Unknown,Unknown,Unknown,Unknown,Unknown,Unknown,Unknown,Unknown,Unknown,Unknown,Unknown,No,Unknown,Kellen Nelson,kellen.nelson@usda.gov,Drawn from field maps onto TNF DOQQs
"Experiment 1 (0-5 years), Revilla Chin E, ",561,Unknown,Active,U.S. Forest Service,,,Tongass-Wide Young Growth Study (TWYGS),55.80047,-131.657,Unknown,Unknown,N/A,Experimental Plot,No,No,No,Yes,No,No,Unknown,Unknown,U.S. Forest Service,Unknown,Unknown,Unknown,Unknown,Unknown,Unknown,Unknown,Unknown,Unknown,Unknown,Unknown,Unknown,Unknown,Unknown,Unknown,StandID 736020081. Control and 80 TPA treatments have 1 fenced deer exclosure & 1 unfenced paired area. Number of 1/5-acre permanent plots still to be determined.,Unknown,Kellen Nelson,kellen.nelson@usda.gov,"Original boundaries from field traverses by RD staff. Bndrys updated using differentially corrected GPS data & digitizing from 1997 TNF DOQQs, 2006 Census Bureau orthos, & Google Earth"
